<?xml version="1.0" encoding="UTF-8"?>
<kml xmlns="http://www.opengis.net/kml/2.2">
  <Document>
    <Placemark>
        <name>Mushroom Rehearsal Studios</name>
        <description><![CDATA[Lubbards Lodge, Hullbridge Rd, Rayleigh SS6 9QG<br>www.mushroomrehearsalstudios.com<br>+44 7833 104822<br><a href="./mushroom.html">Mushroom Rehearsal Studios</a>]]></description>
        <Point>
          <coordinates>
            0.610810399999991,51.6059203,0
          </coordinates>
        </Point>
      </Placemark>
      <Placemark>
        <name>Studio 808</name>
        <description><![CDATA[Unit 11A, Robjohns House, Navigation Rd, Chelmsford CM2 6ND<br>www.studio808online.co.uk<br>+44 1245 261338<br><a href="./studio808.html">Studio 808</a>]]></description>
        <Point>
          <coordinates>
            0.481170900000052,51.7331205,0
          </coordinates>
        </Point>
      </Placemark>
   <Placemark>
        <name>Pioneer Music</name>
        <description><![CDATA[21 Chandlers Row, Colchester CO1 2HG<br>www.pioneermusic.co.uk<br>+44 1206 791604]]></description>
        <Point>
          <coordinates>
            0.921248699999978,51.8808365,0
          </coordinates>
        </Point>
      </Placemark>
      <Placemark>
        <name>Rehearsal Space London</name>
        <description><![CDATA[Lubbards Lodge, Hullbridge Rd, Rayleigh SS6 9QG<br>www.mushroomrehearsalstudios.com<br>+44 7833 104822<br><a href="./mushroom.html">Mushroom Rehearsal Studios</a>]]></description>
        <Point>
          <coordinates>
            -0.025810999999976,51.481511,0
          </coordinates>
        </Point>
      </Placemark>
      <Placemark>
        <name>Creative Music Studios</name>
        <description><![CDATA[Lubbards Lodge, Hullbridge Rd, Rayleigh SS6 9QG<br>www.mushroomrehearsalstudios.com<br>+44 7833 104822<br><a href="./mushroom.html">Mushroom Rehearsal Studios</a>]]></description>
        <Point>
          <coordinates>
            0.361499999999978,51.561398,0
          </coordinates>
        </Point>
      </Placemark>
      <Placemark>
        <name>Stag Studios Ltd</name>
        <description><![CDATA[Lubbards Lodge, Hullbridge Rd, Rayleigh SS6 9QG<br>www.mushroomrehearsalstudios.com<br>+44 7833 104822<br><a href="./mushroom.html">Mushroom Rehearsal Studios</a>]]></description>
        <Point>
          <coordinates>
            0.649765800000068,51.8019573,0
          </coordinates>
        </Point>
      </Placemark>
      <Placemark>
        <name>AT Music Group</name>
        <description><![CDATA[Lubbards Lodge, Hullbridge Rd, Rayleigh SS6 9QG<br>www.mushroomrehearsalstudios.com<br>+44 7833 104822<br><a href="./mushroom.html">Mushroom Rehearsal Studios</a>]]></description>
        <Point>
          <coordinates>
            0.548726200000033,51.6523802,0
          </coordinates>
        </Point>
      </Placemark>
      <Placemark>
        <name>Soundmagic Studios</name>
        <description><![CDATA[Lubbards Lodge, Hullbridge Rd, Rayleigh SS6 9QG<br>www.mushroomrehearsalstudios.com<br>+44 7833 104822<br><a href="./mushroom.html">Mushroom Rehearsal Studios</a>]]></description>
        <Point>
          <coordinates>
            0.710431500000027,51.7837238,0
          </coordinates>
        </Point>
      </Placemark>
      <Placemark>
        <name>Card Trick Music</name>
        <description><![CDATA[Lubbards Lodge, Hullbridge Rd, Rayleigh SS6 9QG<br>www.mushroomrehearsalstudios.com<br>+44 7833 104822<br><a href="./mushroom.html">Mushroom Rehearsal Studios</a>]]></description>
        <Point>
          <coordinates>
            0.41741879999995,51.7155664,0
          </coordinates>
        </Point>
      </Placemark>
      <Placemark>
        <name>Studio 6 Music</name>
        <description><![CDATA[Lubbards Lodge, Hullbridge Rd, Rayleigh SS6 9QG<br>www.mushroomrehearsalstudios.com<br>+44 7833 104822<br><a href="./mushroom.html">Mushroom Rehearsal Studios</a>]]></description>
        <Point>
          <coordinates>
            0.646727999999939,51.806799,0
          </coordinates>
        </Point>
      </Placemark>
      <Placemark>
        <name>Stag Studios Ltd</name>
        <description><![CDATA[Lubbards Lodge, Hullbridge Rd, Rayleigh SS6 9QG<br>www.mushroomrehearsalstudios.com<br>+44 7833 104822<br><a href="./mushroom.html">Mushroom Rehearsal Studios</a>]]></description>
        <Point>
          <coordinates>
            0.649765800000068,51.8019573,0
          </coordinates>
        </Point>
      </Placemark>
      <Placemark>
        <name>London Rehearsal Space</name>
        <description><![CDATA[Lubbards Lodge, Hullbridge Rd, Rayleigh SS6 9QG<br>www.mushroomrehearsalstudios.com<br>
        +44 7833 104822<br><a href="./mushroom.html">Mushroom Rehearsal Studios</a>]]></description>
        <Point>
          <coordinates>
            -0.0903716000000259,51.5212975,0
          </coordinates>
        </Point>
      </Placemark>
      <Placemark>
        <name>Westbourne Rehearsal Studios</name>
        <description><![CDATA[Lubbards Lodge, Hullbridge Rd, Rayleigh SS6 9QG<br>www.mushroomrehearsalstudios.com<br>
        +44 7833 104822<br><a href="./mushroom.html">Mushroom Rehearsal Studios</a>]]></description>
        <Point>
          <coordinates>
            -0.191104900000028,51.5208865,0
          </coordinates>
        </Point>
      </Placemark>
      <Placemark>
        <name>The Engine Rooms Rehearsal Studios</name>
        <description><![CDATA[Lubbards Lodge, Hullbridge Rd, Rayleigh SS6 9QG<br>www.mushroomrehearsalstudios.com<br>
        +44 7833 104822<br><a href="./mushroom.html">Mushroom Rehearsal Studios</a>]]></description>
        <Point>
          <coordinates>
            -0.0229888000000074,51.5238422,0
          </coordinates>
        </Point>
      </Placemark>
      <Placemark>
        <name>Vatican Rehearsal and Recording Studios</name>
        <description><![CDATA[Lubbards Lodge, Hullbridge Rd, Rayleigh SS6 9QG<br>www.mushroomrehearsalstudios.com<br>
        +44 7833 104822<br><a href="./mushroom.html">Mushroom Rehearsal Studios</a>]]></description>
        <Point>
          <coordinates>
            -0.048106999999959,51.525887,0
          </coordinates>
        </Point>
      </Placemark>
      <Placemark>
        <name>Bush Studios Ltd</name>
        <description><![CDATA[Lubbards Lodge, Hullbridge Rd, Rayleigh SS6 9QG<br>www.mushroomrehearsalstudios.com<br>
        +44 7833 104822<br><a href="./mushroom.html">Mushroom Rehearsal Studios</a>]]></description>
        <Point>
          <coordinates>
            -0.226247000000058,51.5056228,0
          </coordinates>
        </Point>
      </Placemark>
      <Placemark>
        <name>Strummers Studios - Rehearsal, Recording and Backline Hire</name>
        <description><![CDATA[Lubbards Lodge, Hullbridge Rd, Rayleigh SS6 9QG<br>www.mushroomrehearsalstudios.com<br>
        +44 7833 104822<br><a href="./mushroom.html">Mushroom Rehearsal Studios</a>]]></description>
        <Point>
          <coordinates>
            -0.111200999999937,51.5508259,0
          </coordinates>
        </Point>
      </Placemark>
      <Placemark>
        <name>Rehearsal Space London</name>
        <description><![CDATA[Lubbards Lodge, Hullbridge Rd, Rayleigh SS6 9QG<br>www.mushroomrehearsalstudios.com<br>
        +44 7833 104822<br><a href="./mushroom.html">Mushroom Rehearsal Studios</a>]]></description>
        <Point>
          <coordinates>
            -0.025810999999976,51.481511,0
          </coordinates>
        </Point>
      </Placemark>
      <Placemark>
        <name>Strummers Studios - Rehearsal, Recording and Backline Hire</name>
        <description><![CDATA[Lubbards Lodge, Hullbridge Rd, Rayleigh SS6 9QG<br>www.mushroomrehearsalstudios.com<br>
        +44 7833 104822<br><a href="./mushroom.html">Mushroom Rehearsal Studios</a>]]></description>
        <Point>
          <coordinates>
            -0.111200999999937,51.5508259,0
          </coordinates>
        </Point>
      </Placemark>
      <Placemark>
        <name>Bush Studios Ltd</name>
        <description><![CDATA[Lubbards Lodge, Hullbridge Rd, Rayleigh SS6 9QG<br>www.mushroomrehearsalstudios.com<br>
        +44 7833 104822<br><a href="./mushroom.html">Mushroom Rehearsal Studios</a>]]></description>
        <Point>
          <coordinates>
            -0.226247000000058,51.5056228,0
          </coordinates>
        </Point>
      </Placemark>
      <Placemark>
        <name>NSP Recording and Rehearsal Studio</name>
        <description><![CDATA[Lubbards Lodge, Hullbridge Rd, Rayleigh SS6 9QG<br>www.mushroomrehearsalstudios.com<br>
        +44 7833 104822<br><a href="./mushroom.html">Mushroom Rehearsal Studios</a>]]></description>
        <Point>
          <coordinates>
            0.527525999999966,51.22955,0
          </coordinates>
        </Point>
      </Placemark>
      <Placemark>
        <name>Riverside Rehearsal Studios</name>
        <description><![CDATA[Lubbards Lodge, Hullbridge Rd, Rayleigh SS6 9QG<br>www.mushroomrehearsalstudios.com<br>
        +44 7833 104822<br><a href="./mushroom.html">Mushroom Rehearsal Studios</a>]]></description>
        <Point>
          <coordinates>
            0.216518899999983,51.4504732,0
          </coordinates>
        </Point>
      </Placemark>
      <Placemark>
        <name>Ebbsfleet Studios</name>
        <description><![CDATA[Lubbards Lodge, Hullbridge Rd, Rayleigh SS6 9QG<br>www.mushroomrehearsalstudios.com<br>
        +44 7833 104822<br><a href="./mushroom.html">Mushroom Rehearsal Studios</a>]]></description>
        <Point>
          <coordinates>
            0.316181599999936,51.4502713,0
          </coordinates>
        </Point>
      </Placemark>
      <Placemark>
        <name>Sunlight Recording Rehearsal Studio</name>
        <description><![CDATA[Lubbards Lodge, Hullbridge Rd, Rayleigh SS6 9QG<br>www.mushroomrehearsalstudios.com<br>
        +44 7833 104822<br><a href="./mushroom.html">Mushroom Rehearsal Studios</a>]]></description>
        <Point>
          <coordinates>
            0.550517600000035,51.3931849,0
          </coordinates>
        </Point>
      </Placemark>
      <Placemark>
        <name>Swanley Studios</name>
        <description><![CDATA[Lubbards Lodge, Hullbridge Rd, Rayleigh SS6 9QG<br>www.mushroomrehearsalstudios.com<br>
        +44 7833 104822<br><a href="./mushroom.html">Mushroom Rehearsal Studios</a>]]></description>
        <Point>
          <coordinates>
            0.18151499999999,51.404508,0
          </coordinates>
        </Point>
      </Placemark>
      <Placemark>
        <name>Aardvark Music Services-Rehearsal Room and Recording Studio</name>
        <description><![CDATA[Lubbards Lodge, Hullbridge Rd, Rayleigh SS6 9QG<br>www.mushroomrehearsalstudios.com<br>
        +44 7833 104822<br><a href="./mushroom.html">Mushroom Rehearsal Studios</a>]]></description>
        <Point>
          <coordinates>
            0.99496529999999,51.3210928,0
          </coordinates>
        </Point>
      </Placemark>
      <Placemark>
        <name>Langlei Studios</name>
        <description><![CDATA[Lubbards Lodge, Hullbridge Rd, Rayleigh SS6 9QG<br>www.mushroomrehearsalstudios.com<br>
        +44 7833 104822<br><a href="./mushroom.html">Mushroom Rehearsal Studios</a>]]></description>
        <Point>
          <coordinates>
            0.597627099999954,51.33527,0
          </coordinates>
        </Point>
      </Placemark>
      <Placemark>
        <name>Dover Rehearsal Studios</name>
        <description><![CDATA[Lubbards Lodge, Hullbridge Rd, Rayleigh SS6 9QG<br>www.mushroomrehearsalstudios.com<br>
        +44 7833 104822<br><a href="./mushroom.html">Mushroom Rehearsal Studios</a>]]></description>
        <Point>
          <coordinates>
            1.31091939999999,51.1325951,0
          </coordinates>
        </Point>
      </Placemark>
      <Placemark>
        <name>The Fort Rehearsal and Recording Studio</name>
        <description><![CDATA[Lubbards Lodge, Hullbridge Rd, Rayleigh SS6 9QG<br>www.mushroomrehearsalstudios.com<br>
        +44 7833 104822<br><a href="./mushroom.html">Mushroom Rehearsal Studios</a>]]></description>
        <Point>
          <coordinates>
            0.512423200000057,51.3581029,0
          </coordinates>
        </Point>
      </Placemark>
      <Placemark>
        <name>Orange Studios</name>
        <description><![CDATA[Lubbards Lodge, Hullbridge Rd, Rayleigh SS6 9QG<br>www.mushroomrehearsalstudios.com<br>
        +44 7833 104822<br><a href="./mushroom.html">Mushroom Rehearsal Studios</a>]]></description>
        <Point>
          <coordinates>
            0.525056100000029,51.2839837,0
          </coordinates>
        </Point>
      </Placemark>
      <Placemark>
        <name>Strongroom Music Studios</name>
        <description><![CDATA[Lubbards Lodge, Hullbridge Rd, Rayleigh SS6 9QG<br>www.mushroomrehearsalstudios.com<br>
        +44 7833 104822<br><a href="./mushroom.html">Mushroom Rehearsal Studios</a>]]></description>
        <Point>
          <coordinates>
            -0.0801099999999906,51.525958,0
          </coordinates>
        </Point>
      </Placemark>
      <Placemark>
        <name>Vatican Rehearsal and Recording Studios</name>
        <description><![CDATA[Lubbards Lodge, Hullbridge Rd, Rayleigh SS6 9QG<br>www.mushroomrehearsalstudios.com<br>
        +44 7833 104822<br><a href="./mushroom.html">Mushroom Rehearsal Studios</a>]]></description>
        <Point>
          <coordinates>
            -0.048106999999959,51.525887,0
          </coordinates>
        </Point>
      </Placemark>
      <Placemark>
        <name>Bush Studios Ltd</name>
        <description><![CDATA[Lubbards Lodge, Hullbridge Rd, Rayleigh SS6 9QG<br>www.mushroomrehearsalstudios.com<br>
        +44 7833 104822<br><a href="./mushroom.html">Mushroom Rehearsal Studios</a>]]></description>
        <Point>
          <coordinates>
            -0.226247000000058,51.5056228,0
          </coordinates>
        </Point>
      </Placemark>
      <Placemark>
        <name>Banana Road Studios</name>
        <description><![CDATA[Lubbards Lodge, Hullbridge Rd, Rayleigh SS6 9QG<br>www.mushroomrehearsalstudios.com<br>
        +44 7833 104822<br><a href="./mushroom.html">Mushroom Rehearsal Studios</a>]]></description>
        <Point>
          <coordinates>
            0.166286000000014,51.481022,0
          </coordinates>
        </Point>
      </Placemark>
      <Placemark>
        <name>Warehouse Studios</name>
        <description><![CDATA[Lubbards Lodge, Hullbridge Rd, Rayleigh SS6 9QG<br>www.mushroomrehearsalstudios.com<br>
        +44 7833 104822<br><a href="./mushroom.html">Mushroom Rehearsal Studios</a>]]></description>
        <Point>
          <coordinates>
            -1.23728099999994,51.705551,0
          </coordinates>
        </Point>
      </Placemark>
      <Placemark>
        <name>Master Rhythm Studios</name>
        <description><![CDATA[Lubbards Lodge, Hullbridge Rd, Rayleigh SS6 9QG<br>www.mushroomrehearsalstudios.com<br>
        +44 7833 104822<br><a href="./mushroom.html">Mushroom Rehearsal Studios</a>]]></description>
        <Point>
          <coordinates>
            -1.21813700000007,51.731878,0
          </coordinates>
        </Point>
      </Placemark>
      <Placemark>
        <name>Glasshouse Studios</name>
        <description><![CDATA[Lubbards Lodge, Hullbridge Rd, Rayleigh SS6 9QG<br>www.mushroomrehearsalstudios.com<br>
        +44 7833 104822<br><a href="./mushroom.html">Mushroom Rehearsal Studios</a>]]></description>
        <Point>
          <coordinates>
            -1.33165899999995,51.739739,0
          </coordinates>
        </Point>
      </Placemark>
      <Placemark>
        <name>Soundworks Recording Studio Oxford</name>
        <description><![CDATA[Lubbards Lodge, Hullbridge Rd, Rayleigh SS6 9QG<br>www.mushroomrehearsalstudios.com<br>
        +44 7833 104822<br><a href="./mushroom.html">Mushroom Rehearsal Studios</a>]]></description>
        <Point>
          <coordinates>
            -1.20132799999999,51.721335,0
          </coordinates>
        </Point>
      </Placemark>
      <Placemark>
        <name>Rotator Studios</name>
        <description><![CDATA[Lubbards Lodge, Hullbridge Rd, Rayleigh SS6 9QG<br>www.mushroomrehearsalstudios.com<br>
        +44 7833 104822<br><a href="./mushroom.html">Mushroom Rehearsal Studios</a>]]></description>
        <Point>
          <coordinates>
            -1.23568309999996,51.7417302,0
          </coordinates>
        </Point>
      </Placemark>
      <Placemark>
        <name>Evolution Studios</name>
        <description><![CDATA[Lubbards Lodge, Hullbridge Rd, Rayleigh SS6 9QG<br>www.mushroomrehearsalstudios.com<br>
        +44 7833 104822<br><a href="./mushroom.html">Mushroom Rehearsal Studios</a>]]></description>
        <Point>
          <coordinates>
            -1.27752080000005,51.7484508,0
          </coordinates>
        </Point>
      </Placemark>
      <Placemark>
        <name>Safehouse Studio</name>
        <description><![CDATA[Lubbards Lodge, Hullbridge Rd, Rayleigh SS6 9QG<br>www.mushroomrehearsalstudios.com<br>
        +44 7833 104822<br><a href="./mushroom.html">Mushroom Rehearsal Studios</a>]]></description>
        <Point>
          <coordinates>
            -1.23908449999999,51.7517576,0
          </coordinates>
        </Point>
      </Placemark>
      <Placemark>
        <name>Cooz's Records</name>
        <description><![CDATA[Lubbards Lodge, Hullbridge Rd, Rayleigh SS6 9QG<br>www.mushroomrehearsalstudios.com<br>
        +44 7833 104822<br><a href="./mushroom.html">Mushroom Rehearsal Studios</a>]]></description>
        <Point>
          <coordinates>
            -1.29427380000004,51.7517325,0
          </coordinates>
        </Point>
      </Placemark>
      <Placemark>
        <name>Accelerator Studio</name>
        <description><![CDATA[Lubbards Lodge, Hullbridge Rd, Rayleigh SS6 9QG<br>www.mushroomrehearsalstudios.com<br>
        +44 7833 104822<br><a href="./mushroom.html">Mushroom Rehearsal Studios</a>]]></description>
        <Point>
          <coordinates>
            -1.200422,51.763801,0
          </coordinates>
        </Point>
      </Placemark>
      <Placemark>
        <name>Oxfordshire Music Rooms</name>
        <description><![CDATA[Lubbards Lodge, Hullbridge Rd, Rayleigh SS6 9QG<br>www.mushroomrehearsalstudios.com<br>
        +44 7833 104822<br><a href="./mushroom.html">Mushroom Rehearsal Studios</a>]]></description>
        <Point>
          <coordinates>
            -1.07949080000003,51.6609117,0
          </coordinates>
        </Point>
      </Placemark>
      <Placemark>
        <name>Rhinocorn Studio</name>
        <description><![CDATA[Lubbards Lodge, Hullbridge Rd, Rayleigh SS6 9QG<br>www.mushroomrehearsalstudios.com<br>
        +44 7833 104822<br><a href="./mushroom.html">Mushroom Rehearsal Studios</a>]]></description>
        <Point>
          <coordinates>
            0.148356400000011,52.2147136,0
          </coordinates>
        </Point>
      </Placemark>
      <Placemark>
        <name>The Lock Up Cambridge Music Rehearsal Rooms</name>
        <description><![CDATA[Lubbards Lodge, Hullbridge Rd, Rayleigh SS6 9QG<br>www.mushroomrehearsalstudios.com<br>
        +44 7833 104822<br><a href="./mushroom.html">Mushroom Rehearsal Studios</a>]]></description>
        <Point>
          <coordinates>
            0.160633999999959,52.223815,0
          </coordinates>
        </Point>
      </Placemark>
      <Placemark>
        <name>Half-ton Studios</name>
        <description><![CDATA[Lubbards Lodge, Hullbridge Rd, Rayleigh SS6 9QG<br>www.mushroomrehearsalstudios.com<br>
        +44 7833 104822<br><a href="./mushroom.html">Mushroom Rehearsal Studios</a>]]></description>
        <Point>
          <coordinates>
            0.158631499999956,52.2377805,0
          </coordinates>
        </Point>
      </Placemark>
      <Placemark>
        <name>Kite Recording Studio</name>
        <description><![CDATA[Lubbards Lodge, Hullbridge Rd, Rayleigh SS6 9QG<br>www.mushroomrehearsalstudios.com<br>
        +44 7833 104822<br><a href="./mushroom.html">Mushroom Rehearsal Studios</a>]]></description>
        <Point>
          <coordinates>
            0.132208600000013,52.2076753,0
          </coordinates>
        </Point>
      </Placemark>
      <Placemark>
        <name>Flightpath Rehearsal Studio</name>
        <description><![CDATA[Lubbards Lodge, Hullbridge Rd, Rayleigh SS6 9QG<br>www.mushroomrehearsalstudios.com<br>
        +44 7833 104822<br><a href="./mushroom.html">Mushroom Rehearsal Studios</a>]]></description>
        <Point>
          <coordinates>
            0.19295980000004,52.2120286,0
          </coordinates>
        </Point>
      </Placemark>
      <Placemark>
        <name>Headline Music Studios</name>
        <description><![CDATA[Lubbards Lodge, Hullbridge Rd, Rayleigh SS6 9QG<br>www.mushroomrehearsalstudios.com<br>
        +44 7833 104822<br><a href="./mushroom.html">Mushroom Rehearsal Studios</a>]]></description>
        <Point>
          <coordinates>
            0.0735515999999734,52.1429983,0
          </coordinates>
        </Point>
      </Placemark>
      <Placemark>
        <name>Zoo Audio</name>
        <description><![CDATA[Lubbards Lodge, Hullbridge Rd, Rayleigh SS6 9QG<br>www.mushroomrehearsalstudios.com<br>
        +44 7833 104822<br><a href="./mushroom.html">Mushroom Rehearsal Studios</a>]]></description>
        <Point>
          <coordinates>
            0.164058699999941,52.2435395,0
          </coordinates>
        </Point>
      </Placemark>
      <Placemark>
        <name>Resonant Rehearsals</name>
        <description><![CDATA[Lubbards Lodge, Hullbridge Rd, Rayleigh SS6 9QG<br>www.mushroomrehearsalstudios.com<br>
        +44 7833 104822<br><a href="./mushroom.html">Mushroom Rehearsal Studios</a>]]></description>
        <Point>
          <coordinates>
            0.158636200000046,52.2378123,0
          </coordinates>
        </Point>
      </Placemark>
      <Placemark>
        <name>Bookmatch Recording Studio</name>
        <description><![CDATA[Lubbards Lodge, Hullbridge Rd, Rayleigh SS6 9QG<br>www.mushroomrehearsalstudios.com<br>
        +44 7833 104822<br><a href="./mushroom.html">Mushroom Rehearsal Studios</a>]]></description>
        <Point>
          <coordinates>
            0.0640978999999788,52.1780534,0
          </coordinates>
        </Point>
      </Placemark>
      <Placemark>
        <name>Rhinocorn Studio</name>
        <description><![CDATA[Lubbards Lodge, Hullbridge Rd, Rayleigh SS6 9QG<br>www.mushroomrehearsalstudios.com<br>
        +44 7833 104822<br><a href="./mushroom.html">Mushroom Rehearsal Studios</a>]]></description>
        <Point>
          <coordinates>
            0.148420999999985,52.214731,0
          </coordinates>
        </Point>
      </Placemark>
      <Placemark>
        <name>New Money Recordings</name>
        <description><![CDATA[Lubbards Lodge, Hullbridge Rd, Rayleigh SS6 9QG<br>www.mushroomrehearsalstudios.com<br>
        +44 7833 104822<br><a href="./mushroom.html">Mushroom Rehearsal Studios</a>]]></description>
        <Point>
          <coordinates>
            -0.770609799999988,52.0344919,0
          </coordinates>
        </Point>
      </Placemark>
      <Placemark>
        <name>Lost Boys Studio</name>
        <description><![CDATA[Lubbards Lodge, Hullbridge Rd, Rayleigh SS6 9QG<br>www.mushroomrehearsalstudios.com<br>
        +44 7833 104822<br><a href="./mushroom.html">Mushroom Rehearsal Studios</a>]]></description>
        <Point>
          <coordinates>
            -0.592766999999981,52.09208,0
          </coordinates>
        </Point>
      </Placemark>
      <Placemark>
        <name>Old School Studios</name>
        <description><![CDATA[Lubbards Lodge, Hullbridge Rd, Rayleigh SS6 9QG<br>www.mushroomrehearsalstudios.com<br>
        +44 7833 104822<br><a href="./mushroom.html">Mushroom Rehearsal Studios</a>]]></description>
        <Point>
          <coordinates>
            -0.792558500000041,52.0646346,0
          </coordinates>
        </Point>
      </Placemark>
      <Placemark>
        <name>Mr Gig Studios</name>
        <description><![CDATA[Lubbards Lodge, Hullbridge Rd, Rayleigh SS6 9QG<br>www.mushroomrehearsalstudios.com<br>
        +44 7833 104822<br><a href="./mushroom.html">Mushroom Rehearsal Studios</a>]]></description>
        <Point>
          <coordinates>
            -0.720678000000021,51.9994274,0
          </coordinates>
        </Point>
      </Placemark>
      <Placemark>
        <name>Hillside Recording Studio</name>
        <description><![CDATA[Lubbards Lodge, Hullbridge Rd, Rayleigh SS6 9QG<br>www.mushroomrehearsalstudios.com<br>
        +44 7833 104822<br><a href="./mushroom.html">Mushroom Rehearsal Studios</a>]]></description>
        <Point>
          <coordinates>
            -0.773481100000026,51.9661695,0
          </coordinates>
        </Point>
      </Placemark>
      <Placemark>
        <name>Unit Nine Live Music Venue</name>
        <description><![CDATA[Lubbards Lodge, Hullbridge Rd, Rayleigh SS6 9QG<br>www.mushroomrehearsalstudios.com<br>
        +44 7833 104822<br><a href="./mushroom.html">Mushroom Rehearsal Studios</a>]]></description>
        <Point>
          <coordinates>
            -0.810222999999951,52.066018,0
          </coordinates>
        </Point>
      </Placemark>
      <Placemark>
        <name>Rock Hard Music Ltd</name>
        <description><![CDATA[Lubbards Lodge, Hullbridge Rd, Rayleigh SS6 9QG<br>www.mushroomrehearsalstudios.com<br>
        +44 7833 104822<br><a href="./mushroom.html">Mushroom Rehearsal Studios</a>]]></description>
        <Point>
          <coordinates>
            -0.818188999999961,52.0653257,0
          </coordinates>
        </Point>
      </Placemark>
      <Placemark>
        <name>Eastwood Studios</name>
        <description><![CDATA[Lubbards Lodge, Hullbridge Rd, Rayleigh SS6 9QG<br>www.mushroomrehearsalstudios.com<br>
        +44 7833 104822<br><a href="./mushroom.html">Mushroom Rehearsal Studios</a>]]></description>
        <Point>
          <coordinates>
            -0.818454100000054,52.1024488,0
          </coordinates>
        </Point>
      </Placemark>
      <Placemark>
        <name>Superhet</name>
        <description><![CDATA[Lubbards Lodge, Hullbridge Rd, Rayleigh SS6 9QG<br>www.mushroomrehearsalstudios.com<br>
        +44 7833 104822<br><a href="./mushroom.html">Mushroom Rehearsal Studios</a>]]></description>
        <Point>
          <coordinates>
            -0.810755999999969,51.967533,0
          </coordinates>
        </Point>
      </Placemark>
      <Placemark>
        <name>RGS Music Group</name>
        <description><![CDATA[Lubbards Lodge, Hullbridge Rd, Rayleigh SS6 9QG<br>www.mushroomrehearsalstudios.com<br>
        +44 7833 104822<br><a href="./mushroom.html">Mushroom Rehearsal Studios</a>]]></description>
        <Point>
          <coordinates>
            -0.81022310000003,52.0660178,0
          </coordinates>
        </Point>
      </Placemark>
      <Placemark>
        <name>The Rehearsal Rooms</name>
        <description><![CDATA[Lubbards Lodge, Hullbridge Rd, Rayleigh SS6 9QG<br>www.mushroomrehearsalstudios.com<br>
        +44 7833 104822<br><a href="./mushroom.html">Mushroom Rehearsal Studios</a>]]></description>
        <Point>
          <coordinates>
            0.711571700000036,52.2425465,0
          </coordinates>
        </Point>
      </Placemark>
      <Placemark>
        <name>The Shrubbery Recording Studio</name>
        <description><![CDATA[Lubbards Lodge, Hullbridge Rd, Rayleigh SS6 9QG<br>www.mushroomrehearsalstudios.com<br>
        +44 7833 104822<br><a href="./mushroom.html">Mushroom Rehearsal Studios</a>]]></description>
        <Point>
          <coordinates>
            0.724185199999965,52.2492995,0
          </coordinates>
        </Point>
      </Placemark>
      <Placemark>
        <name>Soundz Wicked Productions</name>
        <description><![CDATA[Lubbards Lodge, Hullbridge Rd, Rayleigh SS6 9QG<br>www.mushroomrehearsalstudios.com<br>
        +44 7833 104822<br><a href="./mushroom.html">Mushroom Rehearsal Studios</a>]]></description>
        <Point>
          <coordinates>
            0.698329000000058,52.247687,0
          </coordinates>
        </Point>
      </Placemark>
      <Placemark>
        <name>Prosound Ipswich</name>#
        <description><![CDATA[Lubbards Lodge, Hullbridge Rd, Rayleigh SS6 9QG<br>www.mushroomrehearsalstudios.com<br>
        +44 7833 104822<br><a href="./mushroom.html">Mushroom Rehearsal Studios</a>]]></description>
        <Point>
          <coordinates>
            1.13077799999996,52.059956,0
          </coordinates>
        </Point>
      </Placemark>
      <Placemark>
        <name>Punch Studios</name>
        <description><![CDATA[Lubbards Lodge, Hullbridge Rd, Rayleigh SS6 9QG<br>www.mushroomrehearsalstudios.com<br>
        +44 7833 104822<br><a href="./mushroom.html">Mushroom Rehearsal Studios</a>]]></description>
        <Point>
          <coordinates>
            1.14469110000005,52.0614267,0
          </coordinates>
        </Point>
      </Placemark>
      <Placemark>
        <name>Dove Studio</name>
        <description><![CDATA[Lubbards Lodge, Hullbridge Rd, Rayleigh SS6 9QG<br>www.mushroomrehearsalstudios.com<br>
        +44 7833 104822<br><a href="./mushroom.html">Mushroom Rehearsal Studios</a>]]></description>
        <Point>
          <coordinates>
            1.16269179999995,52.0596909,0
          </coordinates>
        </Point>
      </Placemark>
      <Placemark>
        <name>Gemini Recording Studios</name>
        <description><![CDATA[Lubbards Lodge, Hullbridge Rd, Rayleigh SS6 9QG<br>www.mushroomrehearsalstudios.com<br>
        +44 7833 104822<br><a href="./mushroom.html">Mushroom Rehearsal Studios</a>]]></description>
        <Point>
          <coordinates>
            1.17988400000002,52.0479167,0
          </coordinates>
        </Point>
      </Placemark>
      <Placemark>
        <name>Dove Studio</name>
        <description><![CDATA[Lubbards Lodge, Hullbridge Rd, Rayleigh SS6 9QG<br>www.mushroomrehearsalstudios.com<br>
        +44 7833 104822<br><a href="./mushroom.html">Mushroom Rehearsal Studios</a>]]></description>
        <Point>
          <coordinates>
            1.16658810000001,52.05703,0
          </coordinates>
        </Point>
      </Placemark>
      <Placemark>
        <name>HVR Studios</name>
        <description><![CDATA[Lubbards Lodge, Hullbridge Rd, Rayleigh SS6 9QG<br>www.mushroomrehearsalstudios.com<br>
        +44 7833 104822<br><a href="./mushroom.html">Mushroom Rehearsal Studios</a>]]></description>
        <Point>
          <coordinates>
            1.07096799999999,52.051596,0
          </coordinates>
        </Point>
      </Placemark>
      <Placemark>
        <name>Central Audio Lab</name>
        <description><![CDATA[Lubbards Lodge, Hullbridge Rd, Rayleigh SS6 9QG<br>www.mushroomrehearsalstudios.com<br>
        +44 7833 104822<br><a href="./mushroom.html">Mushroom Rehearsal Studios</a>]]></description>
        <Point>
          <coordinates>
            1.15735710000001,52.0543039,0
          </coordinates>
        </Point>
      </Placemark>
      <Placemark>
        <name>Gemini 2</name>
        <description><![CDATA[Lubbards Lodge, Hullbridge Rd, Rayleigh SS6 9QG<br>www.mushroomrehearsalstudios.com<br>
        +44 7833 104822<br><a href="./mushroom.html">Mushroom Rehearsal Studios</a>]]></description>
        <Point>
          <coordinates>
            1.19775149999998,52.0614269,0
          </coordinates>
        </Point>
      </Placemark>
      <Placemark>
        <name>South Street Studios</name>
        <description><![CDATA[Lubbards Lodge, Hullbridge Rd, Rayleigh SS6 9QG<br>www.mushroomrehearsalstudios.com<br>
        +44 7833 104822<br><a href="./mushroom.html">Mushroom Rehearsal Studios</a>]]></description>
        <Point>
          <coordinates>
            1.14469099999997,52.061427,0
          </coordinates>
        </Point>
      </Placemark>
      <Placemark>
        <name>Amblin' Man Recording Studios</name>
        <description><![CDATA[Lubbards Lodge, Hullbridge Rd, Rayleigh SS6 9QG<br>www.mushroomrehearsalstudios.com<br>
        +44 7833 104822<br><a href="./mushroom.html">Mushroom Rehearsal Studios</a>]]></description>
        <Point>
          <coordinates>
            1.22247200000004,52.1528381,0
          </coordinates>
        </Point>
      </Placemark>
      <Placemark>
        <name>Plug Studios</name>
        <description><![CDATA[Lubbards Lodge, Hullbridge Rd, Rayleigh SS6 9QG<br>www.mushroomrehearsalstudios.com<br>
        +44 7833 104822<br><a href="./mushroom.html">Mushroom Rehearsal Studios</a>]]></description>
        <Point>
          <coordinates>
            1.28370840000002,52.6378916,0
          </coordinates>
        </Point>
      </Placemark>
      <Placemark>
        <name>Earth Studios</name>
        <description><![CDATA[Lubbards Lodge, Hullbridge Rd, Rayleigh SS6 9QG<br>www.mushroomrehearsalstudios.com<br>
        +44 7833 104822<br><a href="./mushroom.html">Mushroom Rehearsal Studios</a>]]></description>
        <Point>
          <coordinates>
            1.33766650000007,52.6494026,0
          </coordinates>
        </Point>
      </Placemark>
      <Placemark>
        <name>Live Wire Rerhearsal Recording</name>
        <description><![CDATA[Lubbards Lodge, Hullbridge Rd, Rayleigh SS6 9QG<br>www.mushroomrehearsalstudios.com<br>
        +44 7833 104822<br><a href="./mushroom.html">Mushroom Rehearsal Studios</a>]]></description>
        <Point>
          <coordinates>
            1.21304499999997,52.642405,0
          </coordinates>
        </Point>
      </Placemark>
      <Placemark>
        <name>Art Science Recording Studio</name>
        <description><![CDATA[Lubbards Lodge, Hullbridge Rd, Rayleigh SS6 9QG<br>www.mushroomrehearsalstudios.com<br>
        +44 7833 104822<br><a href="./mushroom.html">Mushroom Rehearsal Studios</a>]]></description>
        <Point>
          <coordinates>
            1.30714650000004,52.6281332,0
          </coordinates>
        </Point>
      </Placemark>
      <Placemark>
        <name>Ashwood Recording Studio</name>
        <description><![CDATA[Lubbards Lodge, Hullbridge Rd, Rayleigh SS6 9QG<br>www.mushroomrehearsalstudios.com<br>
        +44 7833 104822<br><a href="./mushroom.html">Mushroom Rehearsal Studios</a>]]></description>
        <Point>
          <coordinates>
            1.21617349999997,52.6349301,0
          </coordinates>
        </Point>
      </Placemark>
      <Placemark>
        <name>Pirate Studios - Rehearsal Studios</name>
        <description><![CDATA[Lubbards Lodge, Hullbridge Rd, Rayleigh SS6 9QG<br>www.mushroomrehearsalstudios.com<br>
        +44 7833 104822<br><a href="./mushroom.html">Mushroom Rehearsal Studios</a>]]></description>
        <Point>
          <coordinates>
            1.28987499999994,52.6062274,0
          </coordinates>
        </Point>
      </Placemark>
      <Placemark>
        <name>Woodshack Rehearsal Studios</name>
        <description><![CDATA[Lubbards Lodge, Hullbridge Rd, Rayleigh SS6 9QG<br>www.mushroomrehearsalstudios.com<br>
        +44 7833 104822<br><a href="./mushroom.html">Mushroom Rehearsal Studios</a>]]></description>
        <Point>
          <coordinates>
            1.12040649999994,52.5711639,0
          </coordinates>
        </Point>
      </Placemark>
      <Placemark>
        <name>Laffing Boy Music</name>
        <description><![CDATA[Lubbards Lodge, Hullbridge Rd, Rayleigh SS6 9QG<br>www.mushroomrehearsalstudios.com<br>
        +44 7833 104822<br><a href="./mushroom.html">Mushroom Rehearsal Studios</a>]]></description>        
        <Point>
          <coordinates>
            -0.288397700000019,52.5742081,0
          </coordinates>
        </Point>
      </Placemark>
      <Placemark>
        <name>Rocket Park Studios</name>
        <description><![CDATA[Lubbards Lodge, Hullbridge Rd, Rayleigh SS6 9QG<br>www.mushroomrehearsalstudios.com<br>
        +44 7833 104822<br><a href="./mushroom.html">Mushroom Rehearsal Studios</a>]]></description>
        <Point>
          <coordinates>
            -0.263255100000038,52.5929185,0
          </coordinates>
        </Point>
      </Placemark>
      <Placemark>
        <name>A M S Music</name>
        <description><![CDATA[Lubbards Lodge, Hullbridge Rd, Rayleigh SS6 9QG<br>www.mushroomrehearsalstudios.com<br>
        +44 7833 104822<br><a href="./mushroom.html">Mushroom Rehearsal Studios</a>]]></description>
        <Point>
          <coordinates>
            -0.221757799999978,52.5942981,0
          </coordinates>
        </Point>
      </Placemark>
      <Placemark>
        <name>The Den Production Studios</name>
        <description><![CDATA[Lubbards Lodge, Hullbridge Rd, Rayleigh SS6 9QG<br>www.mushroomrehearsalstudios.com<br>
        +44 7833 104822<br><a href="./mushroom.html">Mushroom Rehearsal Studios</a>]]></description>
        <Point>
          <coordinates>
            -0.261788900000056,52.5557172,0
          </coordinates>
        </Point>
      </Placemark>
      <Placemark>
        <name>Drip Dry Productions</name>
        <description><![CDATA[Lubbards Lodge, Hullbridge Rd, Rayleigh SS6 9QG<br>www.mushroomrehearsalstudios.com<br>
        +44 7833 104822<br><a href="./mushroom.html">Mushroom Rehearsal Studios</a>]]></description>
        <Point>
          <coordinates>
            -0.247323000000051,52.58241,0
          </coordinates>
        </Point>
      </Placemark>
      <Placemark>
        <name>The Parlour Recording Studio</name>
        <description><![CDATA[Lubbards Lodge, Hullbridge Rd, Rayleigh SS6 9QG<br>www.mushroomrehearsalstudios.com<br>
        +44 7833 104822<br><a href="./mushroom.html">Mushroom Rehearsal Studios</a>]]></description>
        <Point>
          <coordinates>
            -0.732694600000059,52.423792,0
          </coordinates>
        </Point>
      </Placemark>
      <Placemark>
        <name>Pirate Studios - Rehearsal Studios</name>
        <description><![CDATA[Lubbards Lodge, Hullbridge Rd, Rayleigh SS6 9QG<br>www.mushroomrehearsalstudios.com<br>
        +44 7833 104822<br><a href="./mushroom.html">Mushroom Rehearsal Studios</a>]]></description>
        <Point>
          <coordinates>
            -0.944002500000011,51.4583014,0
          </coordinates>
        </Point>
      </Placemark>
      <Placemark>
        <name>Junction Studio</name>
        <description><![CDATA[Lubbards Lodge, Hullbridge Rd, Rayleigh SS6 9QG<br>www.mushroomrehearsalstudios.com<br>
        +44 7833 104822<br><a href="./mushroom.html">Mushroom Rehearsal Studios</a>]]></description>
        <Point>
          <coordinates>
            -0.948132600000008,51.4527117,0
          </coordinates>
        </Point>
      </Placemark>
      <Placemark>
        <name>Silver Street Studios</name>
        <description><![CDATA[Lubbards Lodge, Hullbridge Rd, Rayleigh SS6 9QG<br>www.mushroomrehearsalstudios.com<br>
        +44 7833 104822<br><a href="./mushroom.html">Mushroom Rehearsal Studios</a>]]></description>
        <Point>
          <coordinates>
            -0.966656499999999,51.4497542,0
          </coordinates>
        </Point>
      </Placemark>
      <Placemark>
        <name>UK Live Sound</name>
        <description><![CDATA[Lubbards Lodge, Hullbridge Rd, Rayleigh SS6 9QG<br>www.mushroomrehearsalstudios.com<br>
        +44 7833 104822<br><a href="./mushroom.html">Mushroom Rehearsal Studios</a>]]></description>
        <Point>
          <coordinates>
            -0.981844099999989,51.4621122,0
          </coordinates>
        </Point>
      </Placemark>
      <Placemark>
        <name>The Gig Rooms</name>
        <description><![CDATA[Lubbards Lodge, Hullbridge Rd, Rayleigh SS6 9QG<br>www.mushroomrehearsalstudios.com<br>
        +44 7833 104822<br><a href="./mushroom.html">Mushroom Rehearsal Studios</a>]]></description>
        <Point>
          <coordinates>
            -0.986886700000014,51.4629949,0
          </coordinates>
        </Point>
      </Placemark>
      <Placemark>
        <name>Outhouse Studios</name>
        <description><![CDATA[Lubbards Lodge, Hullbridge Rd, Rayleigh SS6 9QG<br>www.mushroomrehearsalstudios.com<br>
        +44 7833 104822<br><a href="./mushroom.html">Mushroom Rehearsal Studios</a>]]></description>
        <Point>
          <coordinates>
            -0.994577299999946,51.4532533,0
          </coordinates>
        </Point>
      </Placemark>
      <Placemark>
        <name>Dumb Yank Productions Recording</name>
        <description><![CDATA[Lubbards Lodge, Hullbridge Rd, Rayleigh SS6 9QG<br>www.mushroomrehearsalstudios.com<br>
        +44 7833 104822<br><a href="./mushroom.html">Mushroom Rehearsal Studios</a>]]></description>
        <Point>
          <coordinates>
            -0.971651599999973,51.4669773,0
          </coordinates>
        </Point>
      </Placemark>
      <Placemark>
        <name>Platform Studio</name>
        <description><![CDATA[Lubbards Lodge, Hullbridge Rd, Rayleigh SS6 9QG<br>www.mushroomrehearsalstudios.com<br>
        +44 7833 104822<br><a href="./mushroom.html">Mushroom Rehearsal Studios</a>]]></description>
        <Point>
          <coordinates>
            -1.02034300000003,51.430746,0
          </coordinates>
        </Point>
      </Placemark>
      <Placemark>
        <name>Plug N Play</name>
        <description><![CDATA[Lubbards Lodge, Hullbridge Rd, Rayleigh SS6 9QG<br>www.mushroomrehearsalstudios.com<br>
        +44 7833 104822<br><a href="./mushroom.html">Mushroom Rehearsal Studios</a>]]></description>
        <Point>
          <coordinates>
            -0.981818200000021,51.4622613,0
          </coordinates>
        </Point>
      </Placemark>
      <Placemark>
        <name>Whitehouse Studios</name>
        <description><![CDATA[Lubbards Lodge, Hullbridge Rd, Rayleigh SS6 9QG<br>www.mushroomrehearsalstudios.com<br>
        +44 7833 104822<br><a href="./mushroom.html">Mushroom Rehearsal Studios</a>]]></description>
        <Point>
          <coordinates>
            -0.97215499999993,51.4461734,0
          </coordinates>
        </Point>
      </Placemark>
      <Placemark>
        <name>Pure Rehearsal</name>
        <description><![CDATA[Lubbards Lodge, Hullbridge Rd, Rayleigh SS6 9QG<br>www.mushroomrehearsalstudios.com<br>
        +44 7833 104822<br><a href="./mushroom.html">Mushroom Rehearsal Studios</a>]]></description>
        <Point>
          <coordinates>
            -1.39028499999995,50.90015,0
          </coordinates>
        </Point>
      </Placemark>
      <Placemark>
        <name>Planet Sounds</name>
        <description><![CDATA[Lubbards Lodge, Hullbridge Rd, Rayleigh SS6 9QG<br>www.mushroomrehearsalstudios.com<br>
        +44 7833 104822<br><a href="./mushroom.html">Mushroom Rehearsal Studios</a>]]></description>
        <Point>
          <coordinates>
            -1.39583259999995,50.8996303,0
          </coordinates>
        </Point>
      </Placemark>
      <Placemark>
        <name>River Recording Studio: Rehearsal Rooms</name>
        <description><![CDATA[Lubbards Lodge, Hullbridge Rd, Rayleigh SS6 9QG<br>www.mushroomrehearsalstudios.com<br>
        +44 7833 104822<br><a href="./mushroom.html">Mushroom Rehearsal Studios</a>]]></description>
        <Point>
          <coordinates>
            -1.48631230000001,50.9150333,0
          </coordinates>
        </Point>
      </Placemark>
      <Placemark>
        <name>Untapped Talent Recording Studios</name>
        <description><![CDATA[Lubbards Lodge, Hullbridge Rd, Rayleigh SS6 9QG<br>www.mushroomrehearsalstudios.com<br>
        +44 7833 104822<br><a href="./mushroom.html">Mushroom Rehearsal Studios</a>]]></description>
        <Point>
          <coordinates>
            -1.4158304,50.9079718,0
          </coordinates>
        </Point>
      </Placemark>
      <Placemark>
        <name>Blackhill Studios</name>
        <description><![CDATA[Lubbards Lodge, Hullbridge Rd, Rayleigh SS6 9QG<br>www.mushroomrehearsalstudios.com<br>
        +44 7833 104822<br><a href="./mushroom.html">Mushroom Rehearsal Studios</a>]]></description>
        <Point>
          <coordinates>
            -1.40254449999998,50.912527,0
          </coordinates>
        </Point>
      </Placemark>
      <Placemark>
        <name>Mutant Lab Studio</name>
        <description><![CDATA[Lubbards Lodge, Hullbridge Rd, Rayleigh SS6 9QG<br>www.mushroomrehearsalstudios.com<br>
        +44 7833 104822<br><a href="./mushroom.html">Mushroom Rehearsal Studios</a>]]></description>
        <Point>
          <coordinates>
            -1.40508,50.9029617,0
          </coordinates>
        </Point>
      </Placemark>
      <Placemark>
        <name>The White Room Recording and Production Studio</name>
        <description><![CDATA[Lubbards Lodge, Hullbridge Rd, Rayleigh SS6 9QG<br>www.mushroomrehearsalstudios.com<br>
        +44 7833 104822<br><a href="./mushroom.html">Mushroom Rehearsal Studios</a>]]></description>
        <Point>
          <coordinates>
            -1.36732099999995,50.900704,0
          </coordinates>
        </Point>
      </Placemark>
      <Placemark>
        <name>Studio 17</name>
        <description><![CDATA[Lubbards Lodge, Hullbridge Rd, Rayleigh SS6 9QG<br>www.mushroomrehearsalstudios.com<br>
        +44 7833 104822<br><a href="./mushroom.html">Mushroom Rehearsal Studios</a>]]></description>
        <Point>
          <coordinates>
            -1.41741999999999,50.9078049,0
          </coordinates>
        </Point>
      </Placemark>
      <Placemark>
        <name>RS Studios (Bristol)</name>
        <description><![CDATA[Lubbards Lodge, Hullbridge Rd, Rayleigh SS6 9QG<br>www.mushroomrehearsalstudios.com<br>
        +44 7833 104822<br><a href="./mushroom.html">Mushroom Rehearsal Studios</a>]]></description>
        <Point>
          <coordinates>
            -2.57284600000003,51.44928,0
          </coordinates>
        </Point>
      </Placemark>
      <Placemark>
        <name>Factory Studios</name>
        <description><![CDATA[Lubbards Lodge, Hullbridge Rd, Rayleigh SS6 9QG<br>www.mushroomrehearsalstudios.com<br>
        +44 7833 104822<br><a href="./mushroom.html">Mushroom Rehearsal Studios</a>]]></description>
        <Point>
          <coordinates>
            -2.56313390000003,51.4529298,0
          </coordinates>
        </Point>
      </Placemark>
      <Placemark>
        <name>Firebird Studios</name>
        <description><![CDATA[Lubbards Lodge, Hullbridge Rd, Rayleigh SS6 9QG<br>www.mushroomrehearsalstudios.com<br>
        +44 7833 104822<br><a href="./mushroom.html">Mushroom Rehearsal Studios</a>]]></description>
        <Point>
          <coordinates>
            -2.53996919999997,51.432356,0
          </coordinates>
        </Point>
      </Placemark>
      <Placemark>
        <name>Pirate Studios</name>
        <description><![CDATA[Lubbards Lodge, Hullbridge Rd, Rayleigh SS6 9QG<br>www.mushroomrehearsalstudios.com<br>
        +44 7833 104822<br><a href="./mushroom.html">Mushroom Rehearsal Studios</a>]]></description>
        <Point>
          <coordinates>
            -2.56668089999994,51.457592,0
          </coordinates>
        </Point>
      </Placemark>
      <Placemark>
        <name>Music APE Studios</name>
        <description><![CDATA[Lubbards Lodge, Hullbridge Rd, Rayleigh SS6 9QG<br>www.mushroomrehearsalstudios.com<br>
        +44 7833 104822<br><a href="./mushroom.html">Mushroom Rehearsal Studios</a>]]></description>
        <Point>
          <coordinates>
            -2.58623829999999,51.4829006,0
          </coordinates>
        </Point>
      </Placemark>
      <Placemark>
        <name>Room4 Studios</name>
        <description><![CDATA[Lubbards Lodge, Hullbridge Rd, Rayleigh SS6 9QG<br>www.mushroomrehearsalstudios.com<br>
        +44 7833 104822<br><a href="./mushroom.html">Mushroom Rehearsal Studios</a>]]></description>
        <Point>
          <coordinates>
            -2.55693840000004,51.4617911,0
          </coordinates>
        </Point>
      </Placemark>
      <Placemark>
        <name>Dockside Studios</name>
        <description><![CDATA[Lubbards Lodge, Hullbridge Rd, Rayleigh SS6 9QG<br>www.mushroomrehearsalstudios.com<br>
        +44 7833 104822<br><a href="./mushroom.html">Mushroom Rehearsal Studios</a>]]></description>
        <description><![CDATA[Lubbards Lodge, Hullbridge Rd, Rayleigh SS6 9QG<br>www.mushroomrehearsalstudios.com<br>
        +44 7833 104822<br><a href="./mushroom.html">Mushroom Rehearsal Studios</a>]]></description>
        <Point>
          <coordinates>
            -2.6095229,51.4476422,0
          </coordinates>
        </Point>
      </Placemark>
      <Placemark>
        <name>Jam Jar</name>
        <description><![CDATA[Lubbards Lodge, Hullbridge Rd, Rayleigh SS6 9QG<br>www.mushroomrehearsalstudios.com<br>
        +44 7833 104822<br><a href="./mushroom.html">Mushroom Rehearsal Studios</a>]]></description>
        <Point>
          <coordinates>
            -2.57839139999999,51.4595924,0
          </coordinates>
        </Point>
      </Placemark>
      <Placemark>
        <name>Artist Studios Bristol</name>
        <description><![CDATA[Lubbards Lodge, Hullbridge Rd, Rayleigh SS6 9QG<br>www.mushroomrehearsalstudios.com<br>
        +44 7833 104822<br><a href="./mushroom.html">Mushroom Rehearsal Studios</a>]]></description>
        <Point>
          <coordinates>
            -2.59169010000005,51.4612598,0
          </coordinates>
        </Point>
      </Placemark>
      <Placemark>
        <name>Actiontrack Recording Studio</name>
        <description><![CDATA[Lubbards Lodge, Hullbridge Rd, Rayleigh SS6 9QG<br>www.mushroomrehearsalstudios.com<br>
        +44 7833 104822<br><a href="./mushroom.html">Mushroom Rehearsal Studios</a>]]></description>
        <Point>
          <coordinates>
            -3.10403399999996,51.020181,0
          </coordinates>
        </Point>
      </Placemark>
      <Placemark>
        <name>Razorback Productions</name>
        <description><![CDATA[Lubbards Lodge, Hullbridge Rd, Rayleigh SS6 9QG<br>www.mushroomrehearsalstudios.com<br>
        +44 7833 104822<br><a href="./mushroom.html">Mushroom Rehearsal Studios</a>]]></description>
        <Point>
          <coordinates>
            -3.09548500000005,51.0175309,0
          </coordinates>
        </Point>
      </Placemark>
      <Placemark>
        <name>Taunton Amateur Operatic Society</name>
        <description><![CDATA[Lubbards Lodge, Hullbridge Rd, Rayleigh SS6 9QG<br>www.mushroomrehearsalstudios.com<br>
        +44 7833 104822<br><a href="./mushroom.html">Mushroom Rehearsal Studios</a>]]></description>
        <Point>
          <coordinates>
            -3.104287,51.0244238,0
          </coordinates>
        </Point>
      </Placemark>
      <Placemark>
        <name>Muddy Road Studios</name>
        <description><![CDATA[Lubbards Lodge, Hullbridge Rd, Rayleigh SS6 9QG<br>www.mushroomrehearsalstudios.com<br>
        +44 7833 104822<br><a href="./mushroom.html">Mushroom Rehearsal Studios</a>]]></description>
        <Point>
          <coordinates>
            -3.17555820000007,50.92185,0
          </coordinates>
        </Point>
      </Placemark>
      <Placemark>
        <name>Chicken Shed Recording / Rehearsal Studio</name>
        <description><![CDATA[Lubbards Lodge, Hullbridge Rd, Rayleigh SS6 9QG<br>www.mushroomrehearsalstudios.com<br>
        +44 7833 104822<br><a href="./mushroom.html">Mushroom Rehearsal Studios</a>]]></description>
        <Point>
          <coordinates>
            -2.72803599999997,51.139309,0
          </coordinates>
        </Point>
      </Placemark>
      <Placemark>
        <name>Orchard Studios</name>
        <description><![CDATA[Lubbards Lodge, Hullbridge Rd, Rayleigh SS6 9QG<br>www.mushroomrehearsalstudios.com<br>
        +44 7833 104822<br><a href="./mushroom.html">Mushroom Rehearsal Studios</a>]]></description>
        <Point>
          <coordinates>
            -2.67005199999994,51.087741,0
          </coordinates>
        </Point>
      </Placemark>
      <Placemark>
        <name>Beehive Studios</name>
        <description><![CDATA[Lubbards Lodge, Hullbridge Rd, Rayleigh SS6 9QG<br>www.mushroomrehearsalstudios.com<br>
        +44 7833 104822<br><a href="./mushroom.html">Mushroom Rehearsal Studios</a>]]></description>
        <Point>
          <coordinates>
            -2.88971089999995,51.095161,0
          </coordinates>
        </Point>
      </Placemark>
      <Placemark>
        <name>Levelsound Music Ltd</name>
        <description><![CDATA[Lubbards Lodge, Hullbridge Rd, Rayleigh SS6 9QG<br>www.mushroomrehearsalstudios.com<br>
        +44 7833 104822<br><a href="./mushroom.html">Mushroom Rehearsal Studios</a>]]></description>
        <Point>
          <coordinates>
            -2.92217159999996,51.0430236,0
          </coordinates>
        </Point>
      </Placemark>
      <Placemark>
        <name>level up recording studio</name>
        <description><![CDATA[Lubbards Lodge, Hullbridge Rd, Rayleigh SS6 9QG<br>www.mushroomrehearsalstudios.com<br>
        +44 7833 104822<br><a href="./mushroom.html">Mushroom Rehearsal Studios</a>]]></description>
        <Point>
          <coordinates>
            -2.88993949999997,50.9782918,0
          </coordinates>
        </Point>
      </Placemark>
      <Placemark>
        <name>Supreme Youth Project</name>
        <description><![CDATA[Lubbards Lodge, Hullbridge Rd, Rayleigh SS6 9QG<br>www.mushroomrehearsalstudios.com<br>
        +44 7833 104822<br><a href="./mushroom.html">Mushroom Rehearsal Studios</a>]]></description>
        <Point>
          <coordinates>
            -3.10594200000003,51.018395,0
          </coordinates>
        </Point>
      </Placemark>
      <Placemark>
        <name>Pirate Studios - Rehearsal Studios</name>
        <description><![CDATA[Lubbards Lodge, Hullbridge Rd, Rayleigh SS6 9QG<br>www.mushroomrehearsalstudios.com<br>
        +44 7833 104822<br><a href="./mushroom.html">Mushroom Rehearsal Studios</a>]]></description>
        <Point>
          <coordinates>
            -4.15875800000003,50.368531,0
          </coordinates>
        </Point>
      </Placemark>
      <Placemark>
        <name>Plymouth Music Collective</name>
        <description><![CDATA[Lubbards Lodge, Hullbridge Rd, Rayleigh SS6 9QG<br>www.mushroomrehearsalstudios.com<br>
        +44 7833 104822<br><a href="./mushroom.html">Mushroom Rehearsal Studios</a>]]></description>
        <Point>
          <coordinates>
            -4.12509699999998,50.368866,0
          </coordinates>
        </Point>
      </Placemark>
      <Placemark>
        <name>Studio City Rooms</name>
        <description><![CDATA[Lubbards Lodge, Hullbridge Rd, Rayleigh SS6 9QG<br>www.mushroomrehearsalstudios.com<br>
        +44 7833 104822<br><a href="./mushroom.html">Mushroom Rehearsal Studios</a>]]></description>
        <Point>
          <coordinates>
            -4.16234280000003,50.3816991,0
          </coordinates>
        </Point>
      </Placemark>
      <Placemark>
        <name>Jemstone Studios</name>
        <description><![CDATA[Lubbards Lodge, Hullbridge Rd, Rayleigh SS6 9QG<br>www.mushroomrehearsalstudios.com<br>
        +44 7833 104822<br><a href="./mushroom.html">Mushroom Rehearsal Studios</a>]]></description>
        <Point>
          <coordinates>
            -4.12744079999993,50.3682046,0
          </coordinates>
        </Point>
      </Placemark>
      <Placemark>
        <name>April Media Productions</name>
        <description><![CDATA[Lubbards Lodge, Hullbridge Rd, Rayleigh SS6 9QG<br>www.mushroomrehearsalstudios.com<br>
        +44 7833 104822<br><a href="./mushroom.html">Mushroom Rehearsal Studios</a>]]></description>
        <Point>
          <coordinates>
            -4.1668717,50.3779204,0
          </coordinates>
        </Point>
      </Placemark>
      <Placemark>
        <name>Momentum Studios</name>
        <description><![CDATA[Lubbards Lodge, Hullbridge Rd, Rayleigh SS6 9QG<br>www.mushroomrehearsalstudios.com<br>
        +44 7833 104822<br><a href="./mushroom.html">Mushroom Rehearsal Studios</a>]]></description>
        <Point>
          <coordinates>
            -4.03814869999997,50.3980514,0
          </coordinates>
        </Point>
      </Placemark>
      <Placemark>
        <name>The Studio</name>
        <description><![CDATA[Lubbards Lodge, Hullbridge Rd, Rayleigh SS6 9QG<br>www.mushroomrehearsalstudios.com<br>
        +44 7833 104822<br><a href="./mushroom.html">Mushroom Rehearsal Studios</a>]]></description>
        <Point>
          <coordinates>
            -4.15989250000007,50.3685774,0
          </coordinates>
        </Point>
      </Placemark>
      <Placemark>
        <name>dBs Music Plymouth</name>
        <description><![CDATA[Lubbards Lodge, Hullbridge Rd, Rayleigh SS6 9QG<br>www.mushroomrehearsalstudios.com<br>
        +44 7833 104822<br><a href="./mushroom.html">Mushroom Rehearsal Studios</a>]]></description>
        <Point>
          <coordinates>
            -4.13897339999994,50.3693301,0
          </coordinates>
        </Point>
      </Placemark>
      <Placemark>
        <name>Soundhouse Brass</name>
        <description><![CDATA[Lubbards Lodge, Hullbridge Rd, Rayleigh SS6 9QG<br>www.mushroomrehearsalstudios.com<br>
        +44 7833 104822<br><a href="./mushroom.html">Mushroom Rehearsal Studios</a>]]></description>
        <Point>
          <coordinates>
            -4.10031419999996,50.4120369,0
          </coordinates>
        </Point>
      </Placemark>
      <Placemark>
        <name>Plymouth Rehearsal Rooms</name>
        <description><![CDATA[Lubbards Lodge, Hullbridge Rd, Rayleigh SS6 9QG<br>www.mushroomrehearsalstudios.com<br>
        +44 7833 104822<br><a href="./mushroom.html">Mushroom Rehearsal Studios</a>]]></description>
        <Point>
          <coordinates>
            -4.20334100000002,50.3437008,0
          </coordinates>
        </Point>
      </Placemark>
      <Placemark>
        <name>Pirate Studios - Rehearsal Studios</name>
        <description><![CDATA[Lubbards Lodge, Hullbridge Rd, Rayleigh SS6 9QG<br>www.mushroomrehearsalstudios.com<br>
        +44 7833 104822<br><a href="./mushroom.html">Mushroom Rehearsal Studios</a>]]></description>
        <Point>
          <coordinates>
            -1.87911499999996,52.4740056,0
          </coordinates>
        </Point>
      </Placemark>
      <Placemark>
        <name>Robannas Studios</name>
        <description><![CDATA[Lubbards Lodge, Hullbridge Rd, Rayleigh SS6 9QG<br>www.mushroomrehearsalstudios.com<br>
        +44 7833 104822<br><a href="./mushroom.html">Mushroom Rehearsal Studios</a>]]></description>
        <Point>
          <coordinates>
            -1.89649699999995,52.48845,0
          </coordinates>
        </Point>
      </Placemark>
      <Placemark>
        <name>UPRAWR Studios</name>
        <description><![CDATA[Lubbards Lodge, Hullbridge Rd, Rayleigh SS6 9QG<br>www.mushroomrehearsalstudios.com<br>
        +44 7833 104822<br><a href="./mushroom.html">Mushroom Rehearsal Studios</a>]]></description>
        <Point>
          <coordinates>
            -1.90253299999995,52.4884,0
          </coordinates>
        </Point>
      </Placemark>
      <Placemark>
        <name>The Oxygen Rooms</name>
        <description><![CDATA[Lubbards Lodge, Hullbridge Rd, Rayleigh SS6 9QG<br>www.mushroomrehearsalstudios.com<br>
        +44 7833 104822<br><a href="./mushroom.html">Mushroom Rehearsal Studios</a>]]></description>
        <Point>
          <coordinates>
            -1.90956600000004,52.4915871,0
          </coordinates>
        </Point>
      </Placemark>
      <Placemark>
        <name>So Called Studios</name>
        <description><![CDATA[Lubbards Lodge, Hullbridge Rd, Rayleigh SS6 9QG<br>www.mushroomrehearsalstudios.com<br>
        +44 7833 104822<br><a href="./mushroom.html">Mushroom Rehearsal Studios</a>]]></description>
        <Point>
          <coordinates>
            -1.82123890000003,52.4477181,0
          </coordinates>
        </Point>
      </Placemark>
      <Placemark>
        <name>Mercury Music Studios</name>
        <description><![CDATA[Lubbards Lodge, Hullbridge Rd, Rayleigh SS6 9QG<br>www.mushroomrehearsalstudios.com<br>
        +44 7833 104822<br><a href="./mushroom.html">Mushroom Rehearsal Studios</a>]]></description>
        <Point>
          <coordinates>
            -1.93128300000001,52.412488,0
          </coordinates>
        </Point>
      </Placemark>
      <Placemark>
        <name>Muthers Studio</name>
        <description><![CDATA[Lubbards Lodge, Hullbridge Rd, Rayleigh SS6 9QG<br>www.mushroomrehearsalstudios.com<br>
        +44 7833 104822<br><a href="./mushroom.html">Mushroom Rehearsal Studios</a>]]></description>
        <Point>
          <coordinates>
            -1.89059410000004,52.4713192,0
          </coordinates>
        </Point>
      </Placemark>
      <Placemark>
        <name>RB Studios</name>
        <description><![CDATA[Lubbards Lodge, Hullbridge Rd, Rayleigh SS6 9QG<br>www.mushroomrehearsalstudios.com<br>
        +44 7833 104822<br><a href="./mushroom.html">Mushroom Rehearsal Studios</a>]]></description>
        <Point>
          <coordinates>
            -1.92390390000003,52.4165003,0
          </coordinates>
        </Point>
      </Placemark>
      <Placemark>
        <name>Hockley Street Studios</name>
        <description><![CDATA[Lubbards Lodge, Hullbridge Rd, Rayleigh SS6 9QG<br>www.mushroomrehearsalstudios.com<br>
        +44 7833 104822<br><a href="./mushroom.html">Mushroom Rehearsal Studios</a>]]></description>
        <Point>
          <coordinates>
            -1.90880779999998,52.4909466,0
          </coordinates>
        </Point>
      </Placemark>
      <Placemark>
        <name>moseley rehearsals</name>
        <description><![CDATA[Lubbards Lodge, Hullbridge Rd, Rayleigh SS6 9QG<br>www.mushroomrehearsalstudios.com<br>
        +44 7833 104822<br><a href="./mushroom.html">Mushroom Rehearsal Studios</a>]]></description>
        <Point>
          <coordinates>
            -1.88947210000003,52.4553273,0
          </coordinates>
        </Point>
      </Placemark>
      <Placemark>
        <name>Shrubby Road Studio</name>
        <description><![CDATA[Lubbards Lodge, Hullbridge Rd, Rayleigh SS6 9QG<br>www.mushroomrehearsalstudios.com<br>
        +44 7833 104822<br><a href="./mushroom.html">Mushroom Rehearsal Studios</a>]]></description>
        <Point>
          <coordinates>
            -2.21301829999993,52.1955293,0
          </coordinates>
        </Point>
      </Placemark>
      <Placemark>
        <name>Old Smithy Recording Studios Ltd</name>
        <description><![CDATA[Lubbards Lodge, Hullbridge Rd, Rayleigh SS6 9QG<br>www.mushroomrehearsalstudios.com<br>
        +44 7833 104822<br><a href="./mushroom.html">Mushroom Rehearsal Studios</a>]]></description>
        <Point>
          <coordinates>
            -2.21680029999993,52.1395771,0
          </coordinates>
        </Point>
      </Placemark>
      <Placemark>
        <name>Tower Studios</name>
        <description><![CDATA[Lubbards Lodge, Hullbridge Rd, Rayleigh SS6 9QG<br>www.mushroomrehearsalstudios.com<br>
        +44 7833 104822<br><a href="./mushroom.html">Mushroom Rehearsal Studios</a>]]></description>
        <Point>
          <coordinates>
            -2.07165220000002,52.12954,0
          </coordinates>
        </Point>
      </Placemark>
      <Placemark>
        <name>MayB Studio</name>
        <description><![CDATA[Lubbards Lodge, Hullbridge Rd, Rayleigh SS6 9QG<br>www.mushroomrehearsalstudios.com<br>
        +44 7833 104822<br><a href="./mushroom.html">Mushroom Rehearsal Studios</a>]]></description>
        <Point>
          <coordinates>
            -2.07776910000007,52.1189965,0
          </coordinates>
        </Point>
      </Placemark>
      <Placemark>
        <name>Teach Me Music Academy</name>
        <description><![CDATA[Lubbards Lodge, Hullbridge Rd, Rayleigh SS6 9QG<br>www.mushroomrehearsalstudios.com<br>
        +44 7833 104822<br><a href="./mushroom.html">Mushroom Rehearsal Studios</a>]]></description>
        <Point>
          <coordinates>
            -2.24741589999996,52.3867462,0
          </coordinates>
        </Point>
      </Placemark>
      <Placemark>
        <name>Severn Valley Studios</name>
        <description><![CDATA[Lubbards Lodge, Hullbridge Rd, Rayleigh SS6 9QG<br>www.mushroomrehearsalstudios.com<br>
        +44 7833 104822<br><a href="./mushroom.html">Mushroom Rehearsal Studios</a>]]></description>
        <Point>
          <coordinates>
            -2.27241000000004,52.226626,0
          </coordinates>
        </Point>
      </Placemark>
      <Placemark>
        <name>The Music Chamber School of Music (TMCSM)</name>
        <description><![CDATA[Lubbards Lodge, Hullbridge Rd, Rayleigh SS6 9QG<br>www.mushroomrehearsalstudios.com<br>
        +44 7833 104822<br><a href="./mushroom.html">Mushroom Rehearsal Studios</a>]]></description>
        <Point>
          <coordinates>
            -2.20239990000005,52.1956117,0
          </coordinates>
        </Point>
      </Placemark>
      <Placemark>
        <name>Complete Sound Rehearsal Studio</name>
        <description><![CDATA[Lubbards Lodge, Hullbridge Rd, Rayleigh SS6 9QG<br>www.mushroomrehearsalstudios.com<br>
        +44 7833 104822<br><a href="./mushroom.html">Mushroom Rehearsal Studios</a>]]></description>
        <Point>
          <coordinates>
            -1.52830990000007,52.2830481,0
          </coordinates>
        </Point>
      </Placemark>
      <Placemark>
        <name>14 Records</name>
        <description><![CDATA[Lubbards Lodge, Hullbridge Rd, Rayleigh SS6 9QG<br>www.mushroomrehearsalstudios.com<br>
        +44 7833 104822<br><a href="./mushroom.html">Mushroom Rehearsal Studios</a>]]></description>
        <Point>
          <coordinates>
            -1.53348589999996,52.2844115,0
          </coordinates>
        </Point>
      </Placemark>
      <Placemark>
        <name>Woodbine Street Recording Studio Ltd</name>
        <description><![CDATA[Lubbards Lodge, Hullbridge Rd, Rayleigh SS6 9QG<br>www.mushroomrehearsalstudios.com<br>
        +44 7833 104822<br><a href="./mushroom.html">Mushroom Rehearsal Studios</a>]]></description>
        <Point>
          <coordinates>
            -1.52366870000003,52.2840474,0
          </coordinates>
        </Point>
      </Placemark>
      <Placemark>
        <name>The Band Factory</name>
        <description><![CDATA[Lubbards Lodge, Hullbridge Rd, Rayleigh SS6 9QG<br>www.mushroomrehearsalstudios.com<br>
        +44 7833 104822<br><a href="./mushroom.html">Mushroom Rehearsal Studios</a>]]></description>
        <Point>
          <coordinates>
            -1.52912300000003,52.2830274,0
          </coordinates>
        </Point>
      </Placemark>
      <Placemark>
        <name>One Nation</name>
        <description><![CDATA[Lubbards Lodge, Hullbridge Rd, Rayleigh SS6 9QG<br>www.mushroomrehearsalstudios.com<br>
        +44 7833 104822<br><a href="./mushroom.html">Mushroom Rehearsal Studios</a>]]></description>
        <Point>
          <coordinates>
            -1.53711929999997,52.2862154,0
          </coordinates>
        </Point>
      </Placemark>
      <Placemark>
        <name>Noisegate Studios</name>
        <description><![CDATA[Lubbards Lodge, Hullbridge Rd, Rayleigh SS6 9QG<br>www.mushroomrehearsalstudios.com<br>
        +44 7833 104822<br><a href="./mushroom.html">Mushroom Rehearsal Studios</a>]]></description>
        <Point>
          <coordinates>
            -1.55216259999997,52.2727025,0
          </coordinates>
        </Point>
      </Placemark>
      <Placemark>
        <name>D Music</name>
        <description><![CDATA[Lubbards Lodge, Hullbridge Rd, Rayleigh SS6 9QG<br>www.mushroomrehearsalstudios.com<br>
        +44 7833 104822<br><a href="./mushroom.html">Mushroom Rehearsal Studios</a>]]></description>
        <Point>
          <coordinates>
            -1.52368980000006,52.2843436,0
          </coordinates>
        </Point>
      </Placemark>
      <Placemark>
        <name>Gighouse Recording Studio</name>
        <description><![CDATA[Lubbards Lodge, Hullbridge Rd, Rayleigh SS6 9QG<br>www.mushroomrehearsalstudios.com<br>
        +44 7833 104822<br><a href="./mushroom.html">Mushroom Rehearsal Studios</a>]]></description>
        <Point>
          <coordinates>
            -1.52197209999997,52.2462949,0
          </coordinates>
        </Point>
      </Placemark>
      <Placemark>
        <name>Sounding Sweet</name>
        <description><![CDATA[Lubbards Lodge, Hullbridge Rd, Rayleigh SS6 9QG<br>www.mushroomrehearsalstudios.com<br>
        +44 7833 104822<br><a href="./mushroom.html">Mushroom Rehearsal Studios</a>]]></description>
        <Point>
          <coordinates>
            -1.53184839999994,52.2921309,0
          </coordinates>
        </Point>
      </Placemark>
      <Placemark>
        <name>The Warwick Studio</name>
        <description><![CDATA[Lubbards Lodge, Hullbridge Rd, Rayleigh SS6 9QG<br>www.mushroomrehearsalstudios.com<br>
        +44 7833 104822<br><a href="./mushroom.html">Mushroom Rehearsal Studios</a>]]></description>
        <Point>
          <coordinates>
            -1.58192899999995,52.2837287,0
          </coordinates>
        </Point>
      </Placemark>
      <Placemark>
        <name>Still Ill Studios</name>
        <description><![CDATA[Lubbards Lodge, Hullbridge Rd, Rayleigh SS6 9QG<br>www.mushroomrehearsalstudios.com<br>
        +44 7833 104822<br><a href="./mushroom.html">Mushroom Rehearsal Studios</a>]]></description>
        <Point>
          <coordinates>
            -1.14860699999997,52.618164,0
          </coordinates>
        </Point>
      </Placemark>
      <Placemark>
        <name>Stayfree Music</name>
        <description><![CDATA[Lubbards Lodge, Hullbridge Rd, Rayleigh SS6 9QG<br>www.mushroomrehearsalstudios.com<br>
        +44 7833 104822<br><a href="./mushroom.html">Mushroom Rehearsal Studios</a>]]></description>
        <Point>
          <coordinates>
            -1.14304370000002,52.641134,0
          </coordinates>
        </Point>
      </Placemark>
      <Placemark>
        <name>Quad Studios</name>
        <description><![CDATA[Lubbards Lodge, Hullbridge Rd, Rayleigh SS6 9QG<br>www.mushroomrehearsalstudios.com<br>
        +44 7833 104822<br><a href="./mushroom.html">Mushroom Rehearsal Studios</a>]]></description>
        <Point>
          <coordinates>
            -1.13461970000003,52.6428413,0
          </coordinates>
        </Point>
      </Placemark>
      <Placemark>
        <name>Deadline Studios</name>
        <description><![CDATA[Lubbards Lodge, Hullbridge Rd, Rayleigh SS6 9QG<br>www.mushroomrehearsalstudios.com<br>
        +44 7833 104822<br><a href="./mushroom.html">Mushroom Rehearsal Studios</a>]]></description>
        <Point>
          <coordinates>
            -1.15380000000005,52.60377,0
          </coordinates>
        </Point>
      </Placemark>
      <Placemark>
        <name>Yellow Bean Studios</name>
        <description><![CDATA[Lubbards Lodge, Hullbridge Rd, Rayleigh SS6 9QG<br>www.mushroomrehearsalstudios.com<br>
        +44 7833 104822<br><a href="./mushroom.html">Mushroom Rehearsal Studios</a>]]></description>
        <Point>
          <coordinates>
            -1.14943160000007,52.6223727,0
          </coordinates>
        </Point>
      </Placemark>
      <Placemark>
        <name>Roasted Studios</name>
        <description><![CDATA[Lubbards Lodge, Hullbridge Rd, Rayleigh SS6 9QG<br>www.mushroomrehearsalstudios.com<br>
        +44 7833 104822<br><a href="./mushroom.html">Mushroom Rehearsal Studios</a>]]></description>
        <Point>
          <coordinates>
            -1.12787849999995,52.642354,0
          </coordinates>
        </Point>
      </Placemark>
      <Placemark>
        <name>Magnet Rehearsal Studios</name>
        <description><![CDATA[Lubbards Lodge, Hullbridge Rd, Rayleigh SS6 9QG<br>www.mushroomrehearsalstudios.com<br>
        +44 7833 104822<br><a href="./mushroom.html">Mushroom Rehearsal Studios</a>]]></description>
        <Point>
          <coordinates>
            -1.13506440000003,52.9510322,0
          </coordinates>
        </Point>
      </Placemark>
      <Placemark>
        <name>Nottingham Rehearsal Rooms</name>
        <description><![CDATA[Lubbards Lodge, Hullbridge Rd, Rayleigh SS6 9QG<br>www.mushroomrehearsalstudios.com<br>
        +44 7833 104822<br><a href="./mushroom.html">Mushroom Rehearsal Studios</a>]]></description>
        <Point>
          <coordinates>
            -1.13561500000003,52.956097,0
          </coordinates>
        </Point>
      </Placemark>
      <Placemark>
        <name>The Octave Rooms</name>
        <description><![CDATA[Lubbards Lodge, Hullbridge Rd, Rayleigh SS6 9QG<br>www.mushroomrehearsalstudios.com<br>
        +44 7833 104822<br><a href="./mushroom.html">Mushroom Rehearsal Studios</a>]]></description>
        <Point>
          <coordinates>
            -1.14989100000003,52.96317,0
          </coordinates>
        </Point>
      </Placemark>
      <Placemark>
        <name>Subway Studios</name>
        <description><![CDATA[Lubbards Lodge, Hullbridge Rd, Rayleigh SS6 9QG<br>www.mushroomrehearsalstudios.com<br>
        +44 7833 104822<br><a href="./mushroom.html">Mushroom Rehearsal Studios</a>]]></description>
        <Point>
          <coordinates>
            -1.14924270000006,52.9629683,0
          </coordinates>
        </Point>
      </Placemark>
      <Placemark>
        <name>The Attic Studio</name>
        <description><![CDATA[Lubbards Lodge, Hullbridge Rd, Rayleigh SS6 9QG<br>www.mushroomrehearsalstudios.com<br>
        +44 7833 104822<br><a href="./mushroom.html">Mushroom Rehearsal Studios</a>]]></description>
        <Point>
          <coordinates>
            -1.14343400000007,52.986254,0
          </coordinates>
        </Point>
      </Placemark>
      <Placemark>
        <name>Bunker9 Studios - Nottingham</name>
        <description><![CDATA[Lubbards Lodge, Hullbridge Rd, Rayleigh SS6 9QG<br>www.mushroomrehearsalstudios.com<br>
        +44 7833 104822<br><a href="./mushroom.html">Mushroom Rehearsal Studios</a>]]></description>
        <Point>
          <coordinates>
            -1.13536899999997,52.955994,0
          </coordinates>
        </Point>
      </Placemark>
      <Placemark>
        <name>Psyrex Soundlab</name>
        <description><![CDATA[Lubbards Lodge, Hullbridge Rd, Rayleigh SS6 9QG<br>www.mushroomrehearsalstudios.com<br>
        +44 7833 104822<br><a href="./mushroom.html">Mushroom Rehearsal Studios</a>]]></description>
        <Point>
          <coordinates>
            -1.15861799999993,52.9838687,0
          </coordinates>
        </Point>
      </Placemark>
      <Placemark>
        <name>Brunswick Mill Rehearsal Studios</name>
        <description><![CDATA[Lubbards Lodge, Hullbridge Rd, Rayleigh SS6 9QG<br>www.mushroomrehearsalstudios.com<br>
        +44 7833 104822<br><a href="./mushroom.html">Mushroom Rehearsal Studios</a>]]></description>
        <Point>
          <coordinates>
            -2.21461539999996,53.4849495,0
          </coordinates>
        </Point>
      </Placemark>
      <Placemark>
        <name>Pirate Studios - Rehearsal Studios</name>
        <description><![CDATA[Lubbards Lodge, Hullbridge Rd, Rayleigh SS6 9QG<br>www.mushroomrehearsalstudios.com<br>
        +44 7833 104822<br><a href="./mushroom.html">Mushroom Rehearsal Studios</a>]]></description>
        <Point>
          <coordinates>
            -2.24085239999999,53.4926227,0
          </coordinates>
        </Point>
      </Placemark>
      <Placemark>
        <name>Pirate Studios - Rehearsal Studios</name>
        <description><![CDATA[Lubbards Lodge, Hullbridge Rd, Rayleigh SS6 9QG<br>www.mushroomrehearsalstudios.com<br>
        +44 7833 104822<br><a href="./mushroom.html">Mushroom Rehearsal Studios</a>]]></description>
        <Point>
          <coordinates>
            -2.28532010000004,53.4733716,0
          </coordinates>
        </Point>
      </Placemark>
      <Placemark>
        <name>Guerrilla Studios</name>
        <description><![CDATA[Lubbards Lodge, Hullbridge Rd, Rayleigh SS6 9QG<br>www.mushroomrehearsalstudios.com<br>
        +44 7833 104822<br><a href="./mushroom.html">Mushroom Rehearsal Studios</a>]]></description>
        <Point>
          <coordinates>
            -2.24373790000004,53.4971711,0
          </coordinates>
        </Point>
      </Placemark>
      <Placemark>
        <name>G2 (the Greenhouse Manchester)</name>
        <description><![CDATA[Lubbards Lodge, Hullbridge Rd, Rayleigh SS6 9QG<br>www.mushroomrehearsalstudios.com<br>
        +44 7833 104822<br><a href="./mushroom.html">Mushroom Rehearsal Studios</a>]]></description>
        <Point>
          <coordinates>
            -2.21437200000003,53.484429,0
          </coordinates>
        </Point>
      </Placemark>
      <Placemark>
        <name>Blueprint Studios</name>
        <description><![CDATA[Lubbards Lodge, Hullbridge Rd, Rayleigh SS6 9QG<br>www.mushroomrehearsalstudios.com<br>
        +44 7833 104822<br><a href="./mushroom.html">Mushroom Rehearsal Studios</a>]]></description>
        <Point>
          <coordinates>
            -2.25154399999997,53.486737,0
          </coordinates>
        </Point>
      </Placemark>
      <Placemark>
        <name>Sort Rehearsal Rooms</name>
        <description><![CDATA[Lubbards Lodge, Hullbridge Rd, Rayleigh SS6 9QG<br>www.mushroomrehearsalstudios.com<br>
        +44 7833 104822<br><a href="./mushroom.html">Mushroom Rehearsal Studios</a>]]></description>
        <Point>
          <coordinates>
            -2.97787300000005,53.392206,0
          </coordinates>
        </Point>
      </Placemark>
      <Placemark>
        <name>Crash Rehearsal Studios</name>
        <description><![CDATA[Lubbards Lodge, Hullbridge Rd, Rayleigh SS6 9QG<br>www.mushroomrehearsalstudios.com<br>
        +44 7833 104822<br><a href="./mushroom.html">Mushroom Rehearsal Studios</a>]]></description>
        <Point>
          <coordinates>
            -2.98702700000001,53.407692,0
          </coordinates>
        </Point>
      </Placemark>
      <Placemark>
        <name>Pirate Studios - Rehearsal Studios</name>
        <description><![CDATA[Lubbards Lodge, Hullbridge Rd, Rayleigh SS6 9QG<br>www.mushroomrehearsalstudios.com<br>
        +44 7833 104822<br><a href="./mushroom.html">Mushroom Rehearsal Studios</a>]]></description>
        <Point>
          <coordinates>
            -2.99990260000004,53.4190033,0
          </coordinates>
        </Point>
      </Placemark>
      <Placemark>
        <name>RPM Studios</name>
        <description><![CDATA[Lubbards Lodge, Hullbridge Rd, Rayleigh SS6 9QG<br>www.mushroomrehearsalstudios.com<br>
        +44 7833 104822<br><a href="./mushroom.html">Mushroom Rehearsal Studios</a>]]></description>
        <Point>
          <coordinates>
            -2.98181279999994,53.3918289,0
          </coordinates>
        </Point>
      </Placemark>
      <Placemark>
        <name>Vulcan Studios Ltd</name>
        <description><![CDATA[Lubbards Lodge, Hullbridge Rd, Rayleigh SS6 9QG<br>www.mushroomrehearsalstudios.com<br>
        +44 7833 104822<br><a href="./mushroom.html">Mushroom Rehearsal Studios</a>]]></description>
        <Point>
          <coordinates>
            -2.99962430000005,53.4172632,0
          </coordinates>
        </Point>
      </Placemark>
      <Placemark>
        <name>Court 10 Rehearsal Studio</name>
        <description><![CDATA[Lubbards Lodge, Hullbridge Rd, Rayleigh SS6 9QG<br>www.mushroomrehearsalstudios.com<br>
        +44 7833 104822<br><a href="./mushroom.html">Mushroom Rehearsal Studios</a>]]></description>
        <Point>
          <coordinates>
            -2.98639679999997,53.4072821,0
          </coordinates>
        </Point>
      </Placemark>
      <Placemark>
        <name>Box Rehearsal Studios</name>
        <description><![CDATA[Lubbards Lodge, Hullbridge Rd, Rayleigh SS6 9QG<br>www.mushroomrehearsalstudios.com<br>
        +44 7833 104822<br><a href="./mushroom.html">Mushroom Rehearsal Studios</a>]]></description>
        <Point>
          <coordinates>
            -2.99507170000004,53.4260729,0
          </coordinates>
        </Point>
      </Placemark>
      <Placemark>
        <name>Pirate Studios - Rehearsal Studios</name>
        <description><![CDATA[Lubbards Lodge, Hullbridge Rd, Rayleigh SS6 9QG<br>www.mushroomrehearsalstudios.com<br>
        +44 7833 104822<br><a href="./mushroom.html">Mushroom Rehearsal Studios</a>]]></description>
        <Point>
          <coordinates>
            -1.5786617,53.803549,0
          </coordinates>
        </Point>
      </Placemark>
      <Placemark>
        <name>Eiger Music Studios</name>
        <description><![CDATA[Lubbards Lodge, Hullbridge Rd, Rayleigh SS6 9QG<br>www.mushroomrehearsalstudios.com<br>
        +44 7833 104822<br><a href="./mushroom.html">Mushroom Rehearsal Studios</a>]]></description>
        <Point>
          <coordinates>
            -1.54192739999996,53.7836084,0
          </coordinates>
        </Point>
      </Placemark>
      <Placemark>
        <name>Old Chapel Music Studios</name>
        <description><![CDATA[Lubbards Lodge, Hullbridge Rd, Rayleigh SS6 9QG<br>www.mushroomrehearsalstudios.com<br>
        +44 7833 104822<br><a href="./mushroom.html">Mushroom Rehearsal Studios</a>]]></description>
        <Point>
          <coordinates>
            -1.55943600000001,53.788514,0
          </coordinates>
        </Point>
      </Placemark>
      <Placemark>
        <name>Jar Mills Studios</name>
        <description><![CDATA[Lubbards Lodge, Hullbridge Rd, Rayleigh SS6 9QG<br>www.mushroomrehearsalstudios.com<br>
        +44 7833 104822<br><a href="./mushroom.html">Mushroom Rehearsal Studios</a>]]></description>
        <Point>
          <coordinates>
            -1.52944439999999,53.8030556,0
          </coordinates>
        </Point>
      </Placemark>
      <Placemark>
        <name>Blueberry Hill Studios</name>
        <description><![CDATA[Lubbards Lodge, Hullbridge Rd, Rayleigh SS6 9QG<br>www.mushroomrehearsalstudios.com<br>
        +44 7833 104822<br><a href="./mushroom.html">Mushroom Rehearsal Studios</a>]]></description>
        <Point>
          <coordinates>
            -1.57964000000004,53.803147,0
          </coordinates>
        </Point>
      </Placemark>
      <Placemark>
        <name><![CDATA[The Rock & Roll Circus]]></name>
        <description><![CDATA[Lubbards Lodge, Hullbridge Rd, Rayleigh SS6 9QG<br>www.mushroomrehearsalstudios.com<br>
        +44 7833 104822<br><a href="./mushroom.html">Mushroom Rehearsal Studios</a>]]></description>
        <Point>
          <coordinates>
            -1.58261010000001,53.8007937,0
          </coordinates>
        </Point>
      </Placemark>
      <Placemark>
        <name>Africa Studios Ltd</name>
        <description><![CDATA[Lubbards Lodge, Hullbridge Rd, Rayleigh SS6 9QG<br>www.mushroomrehearsalstudios.com<br>
        +44 7833 104822<br><a href="./mushroom.html">Mushroom Rehearsal Studios</a>]]></description>
        <Point>
          <coordinates>
            -0.352971099999991,53.7549785,0
          </coordinates>
        </Point>
      </Placemark>
      <Placemark>
        <name>ROCKIT STUDIO</name>
        <description><![CDATA[Lubbards Lodge, Hullbridge Rd, Rayleigh SS6 9QG<br>www.mushroomrehearsalstudios.com<br>
        +44 7833 104822<br><a href="./mushroom.html">Mushroom Rehearsal Studios</a>]]></description>
        <Point>
          <coordinates>
            -0.342971700000021,53.7619055,0
          </coordinates>
        </Point>
      </Placemark>
      <Placemark>
        <name>Rehearsal Rooms</name>
        <description><![CDATA[Lubbards Lodge, Hullbridge Rd, Rayleigh SS6 9QG<br>www.mushroomrehearsalstudios.com<br>
        +44 7833 104822<br><a href="./mushroom.html">Mushroom Rehearsal Studios</a>]]></description>
        <Point>
          <coordinates>
            -0.307157899999993,53.7477086,0
          </coordinates>
        </Point>
      </Placemark>
      <Placemark>
        <name>Element Recording Studio</name>
        <description><![CDATA[Lubbards Lodge, Hullbridge Rd, Rayleigh SS6 9QG<br>www.mushroomrehearsalstudios.com<br>
        +44 7833 104822<br><a href="./mushroom.html">Mushroom Rehearsal Studios</a>]]></description>
        <Point>
          <coordinates>
            -0.33127479999996,53.756255,0
          </coordinates>
        </Point>
      </Placemark>
      <Placemark>
        <name>Cool School of Singing</name>
        <description><![CDATA[Lubbards Lodge, Hullbridge Rd, Rayleigh SS6 9QG<br>www.mushroomrehearsalstudios.com<br>
        +44 7833 104822<br><a href="./mushroom.html">Mushroom Rehearsal Studios</a>]]></description>
        <Point>
          <coordinates>
            -0.369560399999955,53.7580887,0
          </coordinates>
        </Point>
      </Placemark>
      <Placemark>
        <name>Attic Rehearsal Rooms</name>
        <description><![CDATA[Lubbards Lodge, Hullbridge Rd, Rayleigh SS6 9QG<br>www.mushroomrehearsalstudios.com<br>
        +44 7833 104822<br><a href="./mushroom.html">Mushroom Rehearsal Studios</a>]]></description>
        <Point>
          <coordinates>
            -1.47450600000002,53.391211,0
          </coordinates>
        </Point>
      </Placemark>
      <Placemark>
        <name>Pirate Studios - Rehearsal Studios</name>
        <description><![CDATA[Lubbards Lodge, Hullbridge Rd, Rayleigh SS6 9QG<br>www.mushroomrehearsalstudios.com<br>
        +44 7833 104822<br><a href="./mushroom.html">Mushroom Rehearsal Studios</a>]]></description>
        <Point>
          <coordinates>
            -1.44785160000004,53.3988453,0
          </coordinates>
        </Point>
      </Placemark>
      <Placemark>
        <name>Hybrid 3 Studios</name>
        <description><![CDATA[Lubbards Lodge, Hullbridge Rd, Rayleigh SS6 9QG<br>www.mushroomrehearsalstudios.com<br>
        +44 7833 104822<br><a href="./mushroom.html">Mushroom Rehearsal Studios</a>]]></description>
        <Point>
          <coordinates>
            -1.46972540000002,53.3634295,0
          </coordinates>
        </Point>
      </Placemark>
      <Placemark>
        <name>Yellow Arch Studios</name>
        <description><![CDATA[Lubbards Lodge, Hullbridge Rd, Rayleigh SS6 9QG<br>www.mushroomrehearsalstudios.com<br>
        +44 7833 104822<br><a href="./mushroom.html">Mushroom Rehearsal Studios</a>]]></description>
        <Point>
          <coordinates>
            -1.47393999999997,53.39186,0
          </coordinates>
        </Point>
      </Placemark>
      <Placemark>
        <name>Insonic Studios</name>
        <description><![CDATA[Lubbards Lodge, Hullbridge Rd, Rayleigh SS6 9QG<br>www.mushroomrehearsalstudios.com<br>
        +44 7833 104822<br><a href="./mushroom.html">Mushroom Rehearsal Studios</a>]]></description>
        <Point>
          <coordinates>
            -0.550125999999977,53.194619,0
          </coordinates>
        </Point>
      </Placemark>
      <Placemark>
        <name>Playing Aloud</name>
        <description><![CDATA[Lubbards Lodge, Hullbridge Rd, Rayleigh SS6 9QG<br>www.mushroomrehearsalstudios.com<br>
        +44 7833 104822<br><a href="./mushroom.html">Mushroom Rehearsal Studios</a>]]></description>
        <Point>
          <coordinates>
            -0.597542500000031,53.1997572,0
          </coordinates>
        </Point>
      </Placemark>
      <Placemark>
        <name>Brickbeat Studios</name>
        <description><![CDATA[Lubbards Lodge, Hullbridge Rd, Rayleigh SS6 9QG<br>www.mushroomrehearsalstudios.com<br>
        +44 7833 104822<br><a href="./mushroom.html">Mushroom Rehearsal Studios</a>]]></description>
        <Point>
          <coordinates>
            -0.537471800000048,53.2322744,0
          </coordinates>
        </Point>
      </Placemark>
      <Placemark>
        <name>BMP The Sound Recording Company Ltd</name>
        <description><![CDATA[Lubbards Lodge, Hullbridge Rd, Rayleigh SS6 9QG<br>www.mushroomrehearsalstudios.com<br>
        +44 7833 104822<br><a href="./mushroom.html">Mushroom Rehearsal Studios</a>]]></description>
        <Point>
          <coordinates>
            -0.554989400000068,53.2279827,0
          </coordinates>
        </Point>
      </Placemark>
      <Placemark>
        <name>Cosmic Sound</name>
        <description><![CDATA[Lubbards Lodge, Hullbridge Rd, Rayleigh SS6 9QG<br>www.mushroomrehearsalstudios.com<br>
        +44 7833 104822<br><a href="./mushroom.html">Mushroom Rehearsal Studios</a>]]></description>
        <Point>
          <coordinates>
            -0.682278999999994,53.109322,0
          </coordinates>
        </Point>
      </Placemark>
      <Placemark>
        <name>Magnet Rehearsal Studios</name>
        <description><![CDATA[Lubbards Lodge, Hullbridge Rd, Rayleigh SS6 9QG<br>www.mushroomrehearsalstudios.com<br>
        +44 7833 104822<br><a href="./mushroom.html">Mushroom Rehearsal Studios</a>]]></description>
        <Point>
          <coordinates>
            -1.13506440000003,52.9510322,0
          </coordinates>
        </Point>
      </Placemark>
      <Placemark>
        <name>FP Studio</name>
        <description><![CDATA[Lubbards Lodge, Hullbridge Rd, Rayleigh SS6 9QG<br>www.mushroomrehearsalstudios.com<br>
        +44 7833 104822<br><a href="./mushroom.html">Mushroom Rehearsal Studios</a>]]></description>
        <Point>
          <coordinates>
            -0.77656120000006,53.0636441,0
          </coordinates>
        </Point>
      </Placemark>
      <Placemark>
        <name>Zebra Express Events</name>
        <description><![CDATA[Lubbards Lodge, Hullbridge Rd, Rayleigh SS6 9QG<br>www.mushroomrehearsalstudios.com<br>
        +44 7833 104822<br><a href="./mushroom.html">Mushroom Rehearsal Studios</a>]]></description>
        <Point>
          <coordinates>
            -0.608048199999985,53.2007888,0
          </coordinates>
        </Point>
      </Placemark>
      <Placemark>
        <name>Venombase Studios</name>
        <description><![CDATA[Lubbards Lodge, Hullbridge Rd, Rayleigh SS6 9QG<br>www.mushroomrehearsalstudios.com<br>
        +44 7833 104822<br><a href="./mushroom.html">Mushroom Rehearsal Studios</a>]]></description>
        <Point>
          <coordinates>
            -2.19019600000001,53.016901,0
          </coordinates>
        </Point>
      </Placemark>
      <Placemark>
        <name><![CDATA[Bad Apple Rehearsal & Recording Studios]]></name>
        <description><![CDATA[Lubbards Lodge, Hullbridge Rd, Rayleigh SS6 9QG<br>www.mushroomrehearsalstudios.com<br>
        +44 7833 104822<br><a href="./mushroom.html">Mushroom Rehearsal Studios</a>]]></description>
        <Point>
          <coordinates>
            -2.17040139999995,53.0338308,0
          </coordinates>
        </Point>
      </Placemark>
      <Placemark>
        <name>Riff Factory</name>
        <description><![CDATA[Lubbards Lodge, Hullbridge Rd, Rayleigh SS6 9QG<br>www.mushroomrehearsalstudios.com<br>
        +44 7833 104822<br><a href="./mushroom.html">Mushroom Rehearsal Studios</a>]]></description>
        <Point>
          <coordinates>
            -2.17573590000006,52.9989532,0
          </coordinates>
        </Point>
      </Placemark>
      <Placemark>
        <name>The Conservatory Rehearsal Rooms</name>
        <description><![CDATA[Lubbards Lodge, Hullbridge Rd, Rayleigh SS6 9QG<br>www.mushroomrehearsalstudios.com<br>
        +44 7833 104822<br><a href="./mushroom.html">Mushroom Rehearsal Studios</a>]]></description>
        <Point>
          <coordinates>
            -2.17570669999998,52.9990954,0
          </coordinates>
        </Point>
      </Placemark>
      <Placemark>
        <name>The Bandstand Rehearsal and Recording Studios</name>
        <description><![CDATA[Lubbards Lodge, Hullbridge Rd, Rayleigh SS6 9QG<br>www.mushroomrehearsalstudios.com<br>
        +44 7833 104822<br><a href="./mushroom.html">Mushroom Rehearsal Studios</a>]]></description>
        <Point>
          <coordinates>
            -2.18928099999994,53.0461507,0
          </coordinates>
        </Point>
      </Placemark>
      <Placemark>
        <name>Summerbank Studios</name>
        <description><![CDATA[Lubbards Lodge, Hullbridge Rd, Rayleigh SS6 9QG<br>www.mushroomrehearsalstudios.com<br>
        +44 7833 104822<br><a href="./mushroom.html">Mushroom Rehearsal Studios</a>]]></description>
        <Point>
          <coordinates>
            -2.21352400000001,53.0680186,0
          </coordinates>
        </Point>
      </Placemark>
      <Placemark>
        <name>Boston Recording Studios</name>
        <description><![CDATA[Lubbards Lodge, Hullbridge Rd, Rayleigh SS6 9QG<br>www.mushroomrehearsalstudios.com<br>
        +44 7833 104822<br><a href="./mushroom.html">Mushroom Rehearsal Studios</a>]]></description>
        <Point>
          <coordinates>
            -0.0166299999999637,52.963063,0
          </coordinates>
        </Point>
      </Placemark>
      <Placemark>
        <name>Star Events</name>
        <description><![CDATA[Lubbards Lodge, Hullbridge Rd, Rayleigh SS6 9QG<br>www.mushroomrehearsalstudios.com<br>
        +44 7833 104822<br><a href="./mushroom.html">Mushroom Rehearsal Studios</a>]]></description>
        <Point>
          <coordinates>
            -0.306658999999968,51.482911,0
          </coordinates>
        </Point>
      </Placemark>
      <Placemark>
        <name>The Jam Factory Studios Ltd</name>
        <description><![CDATA[Lubbards Lodge, Hullbridge Rd, Rayleigh SS6 9QG<br>www.mushroomrehearsalstudios.com<br>
        +44 7833 104822<br><a href="./mushroom.html">Mushroom Rehearsal Studios</a>]]></description>
        <Point>
          <coordinates>
            -1.0764345,53.9687767,0
          </coordinates>
        </Point>
      </Placemark>
      <Placemark>
        <name>The White Rooms</name>
        <description><![CDATA[Lubbards Lodge, Hullbridge Rd, Rayleigh SS6 9QG<br>www.mushroomrehearsalstudios.com<br>
        +44 7833 104822<br><a href="./mushroom.html">Mushroom Rehearsal Studios</a>]]></description>
        <Point>
          <coordinates>
            -1.02707359999999,53.958418,0
          </coordinates>
        </Point>
      </Placemark>
      <Placemark>
        <name>Precentor Recording Studio</name>
        <description><![CDATA[Lubbards Lodge, Hullbridge Rd, Rayleigh SS6 9QG<br>www.mushroomrehearsalstudios.com<br>
        +44 7833 104822<br><a href="./mushroom.html">Mushroom Rehearsal Studios</a>]]></description>
        <Point>
          <coordinates>
            -1.10281320000001,53.9557608,0
          </coordinates>
        </Point>
      </Placemark>
      <Placemark>
        <name>Reel Recording Studios</name>
        <description><![CDATA[Lubbards Lodge, Hullbridge Rd, Rayleigh SS6 9QG<br>www.mushroomrehearsalstudios.com<br>
        +44 7833 104822<br><a href="./mushroom.html">Mushroom Rehearsal Studios</a>]]></description>
        <Point>
          <coordinates>
            -1.02633430000003,53.9585255,0
          </coordinates>
        </Point>
      </Placemark>
      <Placemark>
        <name>Crypt Rehearsals</name>
        <description><![CDATA[Lubbards Lodge, Hullbridge Rd, Rayleigh SS6 9QG<br>www.mushroomrehearsalstudios.com<br>
        +44 7833 104822<br><a href="./mushroom.html">Mushroom Rehearsal Studios</a>]]></description>
        <Point>
          <coordinates>
            -1.30646899999999,53.965343,0
          </coordinates>
        </Point>
      </Placemark>
      <Placemark>
        <name>Young Thugs Studios</name>
        <description><![CDATA[Lubbards Lodge, Hullbridge Rd, Rayleigh SS6 9QG<br>www.mushroomrehearsalstudios.com<br>
        +44 7833 104822<br><a href="./mushroom.html">Mushroom Rehearsal Studios</a>]]></description>
        <Point>
          <coordinates>
            -1.09159249999993,53.9464243,0
          </coordinates>
        </Point>
      </Placemark>
      <Placemark>
        <name>Pirate Studios - Rehearsal Studios</name>
        <description><![CDATA[Lubbards Lodge, Hullbridge Rd, Rayleigh SS6 9QG<br>www.mushroomrehearsalstudios.com<br>
        +44 7833 104822<br><a href="./mushroom.html">Mushroom Rehearsal Studios</a>]]></description>
        <Point>
          <coordinates>
            -3.29649989999996,55.9300934,0
          </coordinates>
        </Point>
      </Placemark>
      <Placemark>
        <name>Tonegarden</name>
        <description><![CDATA[Lubbards Lodge, Hullbridge Rd, Rayleigh SS6 9QG<br>www.mushroomrehearsalstudios.com<br>
        +44 7833 104822<br><a href="./mushroom.html">Mushroom Rehearsal Studios</a>]]></description>
        <Point>
          <coordinates>
            -3.1820467,55.9398578,0
          </coordinates>
        </Point>
      </Placemark>
      <Placemark>
        <name>Music base</name>
        <description><![CDATA[Lubbards Lodge, Hullbridge Rd, Rayleigh SS6 9QG<br>www.mushroomrehearsalstudios.com<br>
        +44 7833 104822<br><a href="./mushroom.html">Mushroom Rehearsal Studios</a>]]></description>
        <Point>
          <coordinates>
            -3.17510770000001,55.9724311,0
          </coordinates>
        </Point>
      </Placemark>
      <Placemark>
        <name>The Depot Studios</name>
        <description><![CDATA[Lubbards Lodge, Hullbridge Rd, Rayleigh SS6 9QG<br>www.mushroomrehearsalstudios.com<br>
        +44 7833 104822<br><a href="./mushroom.html">Mushroom Rehearsal Studios</a>]]></description>
        <Point>
          <coordinates>
            -3.22873400000003,55.9819175,0
          </coordinates>
        </Point>
      </Placemark>
      <Placemark>
        <name>Banana Row Studios</name>
        <description><![CDATA[Lubbards Lodge, Hullbridge Rd, Rayleigh SS6 9QG<br>www.mushroomrehearsalstudios.com<br>
        +44 7833 104822<br><a href="./mushroom.html">Mushroom Rehearsal Studios</a>]]></description>
        <Point>
          <coordinates>
            -3.19789190000006,55.9619815,0
          </coordinates>
        </Point>
      </Placemark>
      <Placemark>
        <name>Coloursound</name>
        <description><![CDATA[Lubbards Lodge, Hullbridge Rd, Rayleigh SS6 9QG<br>www.mushroomrehearsalstudios.com<br>
        +44 7833 104822<br><a href="./mushroom.html">Mushroom Rehearsal Studios</a>]]></description>
        <Point>
          <coordinates>
            -3.22090500000002,55.9460883,0
          </coordinates>
        </Point>
      </Placemark>
      <Placemark>
        <name>Juvat Studios</name>
        <description><![CDATA[Lubbards Lodge, Hullbridge Rd, Rayleigh SS6 9QG<br>www.mushroomrehearsalstudios.com<br>
        +44 7833 104822<br><a href="./mushroom.html">Mushroom Rehearsal Studios</a>]]></description>
        <Point>
          <coordinates>
            -3.14281959999994,55.9344105,0
          </coordinates>
        </Point>
      </Placemark>
      <Placemark>
        <name>Swanfield Studios</name>
        <description><![CDATA[Lubbards Lodge, Hullbridge Rd, Rayleigh SS6 9QG<br>www.mushroomrehearsalstudios.com<br>
        +44 7833 104822<br><a href="./mushroom.html">Mushroom Rehearsal Studios</a>]]></description>
        <Point>
          <coordinates>
            -3.20170229999997,55.9471549,0
          </coordinates>
        </Point>
      </Placemark>